[
  {
    "﻿original_N°": "1",
    "original_NOM": "Académie des Sciences d'Outre Mer",
    "original_Tutelle": null,
    "original_Nombre ETB actif": 1,
    "original_Adresse Siège Social ": "15 RUE LA PEROUSE 75016 PARIS",
    "original_Code Postal": "75016",
    "original_Département": "75",
    "original_Echelon région": "Ile-de-France",
    "lat": 48.869647,
    "lon": 2.293127,
    "formatted": "15 Rue La Pérouse, 75016 Paris, France",
    "name": null,
    "housenumber": "15",
    "street": "Rue La Pérouse",
    "postcode": "75016",
    "district": "Paris",
    "suburb": "Chaillot",
    "city": "Paris",
    "county": "Paris",
    "state": "Île-De-France",
    "state_code": "IDF",
    "country": "France",
    "country_code": "fr",
    "confidence": "0.25004699999999996",
    "confidence_city_level": "1",
    "confidence_street_level": "0.25004699999999996"
  },
  {
    "﻿original_N°": "2",
    "original_NOM": "Académie des Technologies",
    "original_Tutelle": "MESR",
    "original_Nombre ETB actif": 1,
    "original_Adresse Siège Social ": "LE PONANT 19 RUE LEBLANC 75015 PARIS",
    "original_Code Postal": "75015",
    "original_Département": "75",
    "original_Echelon région": "Ile-de-France",
    "lat": 48.839849,
    "lon": 2.273505,
    "formatted": "19 Rue Leblanc, 75015 Paris, France",
    "name": null,
    "housenumber": "19",
    "street": "Rue Leblanc",
    "postcode": "75015",
    "district": "Paris",
    "suburb": "Javel",
    "city": "Paris",
    "county": "Paris",
    "state": "Île-De-France",
    "state_code": "IDF",
    "country": "France",
    "country_code": "fr",
    "confidence": "0.2857142857142857",
    "confidence_city_level": "1",
    "confidence_street_level": "0.2857142857142857"
  },
  {
    "﻿original_N°": "3",
    "original_NOM": "Agence Bibliographique de l'Enseignement Supérieur",
    "original_Tutelle": null,
    "original_Nombre ETB actif": 1,
    "original_Adresse Siège Social ": "227 AVENUE PROFESSEUR JEAN-LOUIS VIALA 34080 MONTPELLIER",
    "original_Code Postal": "34030",
    "original_Département": "34",
    "original_Echelon région": "Occitanie",
    "lat": 43.636476,
    "lon": 3.828888,
    "formatted": "227 Avenue Professeur Jean-Louis Viala, 34080 Montpellier, France",
    "name": null,
    "housenumber": "227",
    "street": "Avenue Professeur Jean-Louis Viala",
    "postcode": "34080",
    "district": "Montpellier",
    "suburb": null,
    "city": "Montpellier",
    "county": "Hérault",
    "state": "Occitanie",
    "state_code": "OCC",
    "country": "France",
    "country_code": "fr",
    "confidence": "0.1875",
    "confidence_city_level": "0.3",
    "confidence_street_level": "0.1875"
  },
  {
    "﻿original_N°": "4",
    "original_NOM": "Agence Française de Lutte contre le Dopage",
    "original_Tutelle": null,
    "original_Nombre ETB actif": 1,
    "original_Adresse Siège Social ": "8 RUE AUBER 75009 PARIS",
    "original_Code Postal": "75009",
    "original_Département": "75",
    "original_Echelon région": "Ile-de-France",
    "lat": 48.8724724,
    "lon": 2.3295913,
    "formatted": "8 Rue Auber, 75009 Paris, France",
    "name": null,
    "housenumber": "8",
    "street": "Rue Auber",
    "postcode": "75009",
    "district": "Paris",
    "suburb": "Paris 9e Arrondissement",
    "city": "Paris",
    "county": null,
    "state": "Île-de-France",
    "state_code": "IDF",
    "country": "France",
    "country_code": "fr",
    "confidence": "0.4",
    "confidence_city_level": "1",
    "confidence_street_level": "0.4"
  },
  {
    "﻿original_N°": "5",
    "original_NOM": "Agence Nationale pour la Recherche",
    "original_Tutelle": "MESR",
    "original_Nombre ETB actif": 1,
    "original_Adresse Siège Social ": "IMMEUBLE KADENCE 86 RUE REGNAULT 75013 PARIS",
    "original_Code Postal": "75013",
    "original_Département": "75",
    "original_Echelon région": "Ile-de-France",
    "lat": 48.823487,
    "lon": 2.37123,
    "formatted": "86 Rue Regnault, 75013 Paris, France",
    "name": null,
    "housenumber": "86",
    "street": "Rue Regnault",
    "postcode": "75013",
    "district": "Paris",
    "suburb": "Gare",
    "city": "Paris",
    "county": "Paris",
    "state": "Île-De-France",
    "state_code": "IDF",
    "country": "France",
    "country_code": "fr",
    "confidence": "0.2857142857142857",
    "confidence_city_level": "1",
    "confidence_street_level": "0.2857142857142857"
  },
  {
    "﻿original_N°": "6",
    "original_NOM": "Bibliothèque Nationale Universitaire de Strasbourg",
    "original_Tutelle": null,
    "original_Nombre ETB actif": 1,
    "original_Adresse Siège Social ": "5 RUE DU MARECHAL JOFFRE 67000 STRASBOURG",
    "original_Code Postal": "67000",
    "original_Département": "67",
    "original_Echelon région": "Grand Est",
    "lat": 48.587419,
    "lon": 7.756384,
    "formatted": "5 Rue Du Maréchal Joffre, 67000 Strasbourg, France",
    "name": null,
    "housenumber": "5",
    "street": "Rue Du Maréchal Joffre",
    "postcode": "67000",
    "district": "Strasbourg",
    "suburb": null,
    "city": "Strasbourg",
    "county": "Bas-Rhin",
    "state": "Grand Est",
    "state_code": "GES",
    "country": "France",
    "country_code": "fr",
    "confidence": "0.35720999999999997",
    "confidence_city_level": "1",
    "confidence_street_level": "0.35720999999999997"
  },
  {
    "﻿original_N°": "7",
    "original_NOM": "Campus Condorcet",
    "original_Tutelle": null,
    "original_Nombre ETB actif": 1,
    "original_Adresse Siège Social ": "8 COURS DES HUMANITES 93300 AUBERVILLIERS",
    "original_Code Postal": "93300",
    "original_Département": "93",
    "original_Echelon région": "Ile-de-France",
    "lat": 48.912754,
    "lon": 2.367027,
    "formatted": "16 Cours Des Humanités, 93300 Aubervilliers, France",
    "name": null,
    "housenumber": "16",
    "street": "Cours Des Humanités",
    "postcode": "93300",
    "district": "Aubervilliers",
    "suburb": null,
    "city": "Aubervilliers",
    "county": "Seine-Saint-Denis",
    "state": "Île-De-France",
    "state_code": "IDF",
    "country": "France",
    "country_code": "fr",
    "confidence": "0.35720999999999997",
    "confidence_city_level": "1",
    "confidence_street_level": "0.35720999999999997"
  },
  {
    "﻿original_N°": "8",
    "original_NOM": "Casa de Velasquez",
    "original_Tutelle": null,
    "original_Nombre ETB actif": 1,
    "original_Adresse Siège Social ": "CIUDAD UNIVERSITARIA 3 C/DE PAUL GUINARD MADRID ESPAGNE",
    "original_Code Postal": "ESPAGNE",
    "original_Département": "ES",
    "original_Echelon région": "ETRANGER",
    "lat": 40.44136748332949, 
    "lon": -3.7299453750385974,
    "formatted": null,
    "name": null,
    "housenumber": null,
    "street": null,
    "postcode": null,
    "district": null,
    "suburb": null,
    "city": null,
    "county": null,
    "state": null,
    "state_code": null,
    "country": null,
    "country_code": null,
    "confidence": null,
    "confidence_city_level": null,
    "confidence_street_level": null
  },
  {
    "﻿original_N°": "9",
    "original_NOM": "Centrale Lille",
    "original_Tutelle": null,
    "original_Nombre ETB actif": 4,
    "original_Adresse Siège Social ": "CITE SCIENTIFIQUE 59491 VILLENEUVE D'ASCQ",
    "original_Code Postal": "59491",
    "original_Département": "59",
    "original_Echelon région": "Hauts-de-France",
    "lat": 50.6097726,
    "lon": 3.141702661271205,
    "formatted": "Cité scientifique - Lilliad, Avenue Mendeleiev, 59491 Villeneuve-d'Ascq, France",
    "name": "Cité scientifique - Lilliad",
    "housenumber": null,
    "street": "Avenue Mendeleiev",
    "postcode": "59491",
    "district": null,
    "suburb": "Cité Scientifique",
    "city": "Villeneuve-d'Ascq",
    "county": "Nord",
    "state": "Hauts-de-France",
    "state_code": "HDF",
    "country": "France",
    "country_code": "fr",
    "confidence": "0.21212121212121213",
    "confidence_city_level": "1",
    "confidence_street_level": "0.21212121212121213"
  },
  {
    "﻿original_N°": "10",
    "original_NOM": "Centrale SUPELEC/CentraleSupélec",
    "original_Tutelle": "MESR",
    "original_Nombre ETB actif": 4,
    "original_Adresse Siège Social ": "PLATEAU DE MOULON 3 RUE JOLIOT-CURIE 91190 GIF-SUR-YVETTE",
    "original_Code Postal": "91190",
    "original_Département": "91",
    "original_Echelon région": "Ile-de-France",
    "lat": 48.709796,
    "lon": 2.162981,
    "formatted": "1 Rue Joliot-curie, 91190 Gif-sur-Yvette, France",
    "name": null,
    "housenumber": "1",
    "street": "Rue Joliot-curie",
    "postcode": "91190",
    "district": "Gif-sur-Yvette",
    "suburb": null,
    "city": "Gif-sur-Yvette",
    "county": "Essonne",
    "state": "Île-De-France",
    "state_code": "IDF",
    "country": "France",
    "country_code": "fr",
    "confidence": "0.2727272727272727",
    "confidence_city_level": "1",
    "confidence_street_level": "0.2727272727272727"
  },
  {
    "﻿original_N°": "11",
    "original_NOM": "Centre informatique nationale de l'enseignement supérieur - Montpellier",
    "original_Tutelle": null,
    "original_Nombre ETB actif": 1,
    "original_Adresse Siège Social ": "950 RUE SAINT-PRIEST 34090 MONTPELLIER",
    "original_Code Postal": "34090",
    "original_Département": "34",
    "original_Echelon région": "Occitanie",
    "lat": 43.635268,
    "lon": 3.840314,
    "formatted": "950 Rue Saint-Priest, 34090 Montpellier, France",
    "name": null,
    "housenumber": "950",
    "street": "Rue Saint-Priest",
    "postcode": "34090",
    "district": "Montpellier",
    "suburb": null,
    "city": "Montpellier",
    "county": "Hérault",
    "state": "Occitanie",
    "state_code": "OCC",
    "country": "France",
    "country_code": "fr",
    "confidence": "0.5",
    "confidence_city_level": "1",
    "confidence_street_level": "0.5"
  },
  {
    "﻿original_N°": "12",
    "original_NOM": "Centre National de recherche scientifique",
    "original_Tutelle": null,
    "original_Nombre ETB actif": 927,
    "original_Adresse Siège Social ": "CNRS MOY1601 PRESIDENCE, 3 RUE MICHEL-ANGE 75016 PARIS",
    "original_Code Postal": "75016",
    "original_Département": "75",
    "original_Echelon région": "Ile-de-France",
    "lat": 48.847761,
    "lon": 2.263792,
    "formatted": "2 Rue Michel-Ange, 75016 Paris, France",
    "name": null,
    "housenumber": "2",
    "street": "Rue Michel-Ange",
    "postcode": "75016",
    "district": "Paris",
    "suburb": "d'Auteuil",
    "city": "Paris",
    "county": "Paris",
    "state": "Île-De-France",
    "state_code": "IDF",
    "country": "France",
    "country_code": "fr",
    "confidence": "0.33333333333333337",
    "confidence_city_level": "1",
    "confidence_street_level": "0.33333333333333337"
  },
  {
    "﻿original_N°": "13",
    "original_NOM": "Centre National d'enseignement à Distance",
    "original_Tutelle": "MENJ",
    "original_Nombre ETB actif": 10,
    "original_Adresse Siège Social ": "CNED-DIRECTION GENERALE, TELEPORT 2 2 BOULEVARD NICEPHORE NIEPCE 86360 CHASSENEUIL-DU-POITOU",
    "original_Code Postal": "86360",
    "original_Département": "86",
    "original_Echelon région": "Nouvelle Aquitaine",
    "lat": 46.66253495,
    "lon": 0.3611915977358145,
    "formatted": "CNED - Direction Générale, Boulevard Nicéphore Niepce, 86360 Chasseneuil-du-Poitou, France",
    "name": "CNED - Direction Générale",
    "housenumber": null,
    "street": "Boulevard Nicéphore Niepce",
    "postcode": "86360",
    "district": null,
    "suburb": "Technopole du Futuroscope",
    "city": "Chasseneuil-du-Poitou",
    "county": "Vienne",
    "state": "Nouvelle-Aquitaine",
    "state_code": "NAQ",
    "country": "France",
    "country_code": "fr",
    "confidence": "0.028715168859527424",
    "confidence_city_level": "1",
    "confidence_street_level": "0.028715168859527424"
  },
  {
    "﻿original_N°": "14",
    "original_NOM": "Centre National des Œuvres universitaires et Scolaires",
    "original_Tutelle": "MESR",
    "original_Nombre ETB actif": 1,
    "original_Adresse Siège Social ": "60 BOULEVARD DU LYCEE 92170 VANVES",
    "original_Code Postal": "92170",
    "original_Département": "92",
    "original_Echelon région": "Ile-de-France",
    "lat": 48.825573,
    "lon": 2.281113,
    "formatted": "60 Boulevard Du Lycée, 92170 Vanves, France",
    "name": null,
    "housenumber": "60",
    "street": "Boulevard Du Lycée",
    "postcode": "92170",
    "district": "Vanves",
    "suburb": null,
    "city": "Vanves",
    "county": "Hauts-de-Seine",
    "state": "Île-De-France",
    "state_code": "IDF",
    "country": "France",
    "country_code": "fr",
    "confidence": "0.25004699999999996",
    "confidence_city_level": "1",
    "confidence_street_level": "0.25004699999999996"
  },
  {
    "﻿original_N°": "15",
    "original_NOM": "Centre technique du Livre de l'Enseignement Supérieur",
    "original_Tutelle": null,
    "original_Nombre ETB actif": 1,
    "original_Adresse Siège Social ": "CTLES, 14 AVENUE GUTENBERG 77600 BUSSY-SAINT-GEORGES",
    "original_Code Postal": "77600",
    "original_Département": "77",
    "original_Echelon région": "Ile-de-France",
    "lat": 48.83229,
    "lon": 2.737942,
    "formatted": "14 Avenue Gutenberg, 77600 Bussy-Saint-Georges, France",
    "name": null,
    "housenumber": "14",
    "street": "Avenue Gutenberg",
    "postcode": "77600",
    "district": "Bussy-Saint-Georges",
    "suburb": null,
    "city": "Bussy-Saint-Georges",
    "county": "Seine-et-Marne",
    "state": "Île-De-France",
    "state_code": "IDF",
    "country": "France",
    "country_code": "fr",
    "confidence": "0.25",
    "confidence_city_level": "1",
    "confidence_street_level": "0.25"
  },
  {
    "﻿original_N°": "16",
    "original_NOM": "Collège de France",
    "original_Tutelle": null,
    "original_Nombre ETB actif": 3,
    "original_Adresse Siège Social ": "11 PLACE MARCELIN BERTHELOT 75005 PARIS",
    "original_Code Postal": "75005",
    "original_Département": "75",
    "original_Echelon région": "Ile-de-France",
    "lat": 48.8491255,
    "lon": 2.3454288,
    "formatted": "11 Place Marcelin Berthelot, 75005 Paris, France",
    "name": null,
    "housenumber": "11",
    "street": "Place Marcelin Berthelot",
    "postcode": "75005",
    "district": "Paris",
    "suburb": "Paris 5e Arrondissement",
    "city": "Paris",
    "county": null,
    "state": "Île-de-France",
    "state_code": "IDF",
    "country": "France",
    "country_code": "fr",
    "confidence": "0.5",
    "confidence_city_level": "1",
    "confidence_street_level": "0.5"
  },
  {
    "﻿original_N°": "17",
    "original_NOM": "ComUE Normandie Université",
    "original_Tutelle": null,
    "original_Nombre ETB actif": 2,
    "original_Adresse Siège Social ": "ESPLANADE DE LA PAIX 14000 CAEN",
    "original_Code Postal": "14000",
    "original_Département": "14",
    "original_Echelon région": "Normandie",
    "lat": 49.1887642,
    "lon": -0.3634297,
    "formatted": "Esplanade de la Paix, 14000 Caen, France",
    "name": "Esplanade de la Paix",
    "housenumber": null,
    "street": "Esplanade de la Paix",
    "postcode": "14000",
    "district": "Saint-Julien",
    "suburb": null,
    "city": "Caen",
    "county": "Calvados",
    "state": "Normandie",
    "state_code": "NOR",
    "country": "France",
    "country_code": "fr",
    "confidence": "0.6666666666666667",
    "confidence_city_level": "1",
    "confidence_street_level": "0.6666666666666667"
  },
  {
    "﻿original_N°": "18",
    "original_NOM": "ComUE Université de Lyon",
    "original_Tutelle": null,
    "original_Nombre ETB actif": 1,
    "original_Adresse Siège Social ": "90-92 90 RUE PASTEUR 69007 LYON",
    "original_Code Postal": "69007",
    "original_Département": "69",
    "original_Echelon région": "Auvergne-Rhône-Alpes",
    "lat": 45.748601,
    "lon": 4.836732,
    "formatted": "90 Rue Pasteur, 69007 Lyon, France",
    "name": null,
    "housenumber": "90",
    "street": "Rue Pasteur",
    "postcode": "69007",
    "district": "7e Arr.",
    "suburb": null,
    "city": "Lyon",
    "county": "Rhône",
    "state": "Auvergne-Rhône-Alpes",
    "state_code": "ARA",
    "country": "France",
    "country_code": "fr",
    "confidence": "0.2857142857142857",
    "confidence_city_level": "1",
    "confidence_street_level": "0.2857142857142857"
  },
  {
    "﻿original_N°": "19",
    "original_NOM": "Conservatoire National des Arts et Métiers",
    "original_Tutelle": null,
    "original_Nombre ETB actif": 66,
    "original_Adresse Siège Social ": "292 RUE SAINT-MARTIN 75003 PARIS",
    "original_Code Postal": "75003",
    "original_Département": "75",
    "original_Echelon région": "Ile-de-France",
    "lat": 48.86678295,
    "lon": 2.355416692533683,
    "formatted": "Conservatoire National des Arts et Métiers, 292 Rue Saint-Martin, 75003 Paris, France",
    "name": "Conservatoire National des Arts et Métiers",
    "housenumber": "292",
    "street": "Rue Saint-Martin",
    "postcode": "75003",
    "district": "Paris",
    "suburb": "Paris 3e Arrondissement",
    "city": "Paris",
    "county": null,
    "state": "Île-de-France",
    "state_code": "IDF",
    "country": "France",
    "country_code": "fr",
    "confidence": "0.5",
    "confidence_city_level": "1",
    "confidence_street_level": "0.5"
  },
  {
    "﻿original_N°": "20",
    "original_NOM": "CREPS Aix-en-Provence",
    "original_Tutelle": "MSJOP",
    "original_Nombre ETB actif": 1,
    "original_Adresse Siège Social ": "PONT DE L'ARC 62 CHEMIN DU VIADUC 13090 AIX-EN-PROVENCE",
    "original_Code Postal": "13090",
    "original_Département": "13",
    "original_Echelon région": "Provence-Alpes-Côte d'Azur",
    "lat": 43.509774,
    "lon": 5.444229,
    "formatted": "62 Chemin Du Viaduc, 13090 Aix-en-Provence, France",
    "name": null,
    "housenumber": "62",
    "street": "Chemin Du Viaduc",
    "postcode": "13090",
    "district": "Aix-en-Provence",
    "suburb": null,
    "city": "Aix-en-Provence",
    "county": "Bouches-du-Rhône",
    "state": "Provence-Alpes-Côte D'Azur",
    "state_code": "PAC",
    "country": "France",
    "country_code": "fr",
    "confidence": "0.2727272727272727",
    "confidence_city_level": "1",
    "confidence_street_level": "0.2727272727272727"
  },
  {
    "﻿original_N°": "21",
    "original_NOM": "CREPS Auvergne - Rhône Alpes - Vichy",
    "original_Tutelle": "MSJOP",
    "original_Nombre ETB actif": 1,
    "original_Adresse Siège Social ": "2 ROUTE DE CHARMEIL 03700 BELLERIVE-SUR-ALLIER",
    "original_Code Postal": "3700",
    "original_Département": "3",
    "original_Echelon région": "Centre Val-de-Loir",
    "lat": 46.130645,
    "lon": 3.402024,
    "formatted": "2 Route De Charmeil, 03700 Bellerive-sur-Allier, France",
    "name": null,
    "housenumber": "2",
    "street": "Route De Charmeil",
    "postcode": "3700",
    "district": "Bellerive-sur-Allier",
    "suburb": null,
    "city": "Bellerive-sur-Allier",
    "county": "Allier",
    "state": "Auvergne-Rhône-Alpes",
    "state_code": "ARA",
    "country": "France",
    "country_code": "fr",
    "confidence": "0.375",
    "confidence_city_level": "1",
    "confidence_street_level": "0.375"
  },
  {
    "﻿original_N°": "22",
    "original_NOM": "CREPS Bordeaux/Talence",
    "original_Tutelle": "MSJOP",
    "original_Nombre ETB actif": 1,
    "original_Adresse Siège Social ": "653 COURS DE LA LIBERATION 33400 TALENCE",
    "original_Code Postal": "33400",
    "original_Département": "33",
    "original_Echelon région": "Nouvelle Aquitaine",
    "lat": 44.798302,
    "lon": -0.6002486,
    "formatted": "653 Cours de la Libération, 33400 Talence, France",
    "name": null,
    "housenumber": "653",
    "street": "Cours de la Libération",
    "postcode": "33400",
    "district": null,
    "suburb": "Thouars",
    "city": "Talence",
    "county": "Gironde",
    "state": "Nouvelle-Aquitaine",
    "state_code": "NAQ",
    "country": "France",
    "country_code": "fr",
    "confidence": "0.25004699999999996",
    "confidence_city_level": "1",
    "confidence_street_level": "0.25004699999999996"
  },
  {
    "﻿original_N°": "23",
    "original_NOM": "CREPS Centre Val de loire",
    "original_Tutelle": "MSJOP",
    "original_Nombre ETB actif": 1,
    "original_Adresse Siège Social ": "48 AVENUE DU MARECHAL JUIN 18000 BOURGES",
    "original_Code Postal": "18000",
    "original_Département": "18",
    "original_Echelon région": "Centre Val-de-Loir",
    "lat": 47.107742,
    "lon": 2.421128,
    "formatted": "48 Avenue Du Marechal Juin, 18000 Bourges, France",
    "name": null,
    "housenumber": "48",
    "street": "Avenue Du Marechal Juin",
    "postcode": "18000",
    "district": "Bourges",
    "suburb": null,
    "city": "Bourges",
    "county": "Cher",
    "state": "Centre-Val de Loire",
    "state_code": "CVL",
    "country": "France",
    "country_code": "fr",
    "confidence": "0.5714285714285714",
    "confidence_city_level": "1",
    "confidence_street_level": "0.5714285714285714"
  },
  {
    "﻿original_N°": "24",
    "original_NOM": "CREPS Guadeloupe",
    "original_Tutelle": "MSJOP",
    "original_Nombre ETB actif": 2,
    "original_Adresse Siège Social ": "ROUTE DES ABYMES 97139 LES ABYMES",
    "original_Code Postal": "97139",
    "original_Département": "97",
    "original_Echelon région": "Guadeloupe",
    "lat": 16.255614,
    "lon": -61.520855,
    "formatted": "376 Route Des Abymes, 97139 GP, France",
    "name": null,
    "housenumber": "376",
    "street": "Route Des Abymes",
    "postcode": "97139",
    "district": null,
    "suburb": null,
    "city": null,
    "county": null,
    "state": "Guadeloupe",
    "state_code": "GP",
    "country": "France",
    "country_code": "fr",
    "confidence": "0.6666666666666667",
    "confidence_city_level": "1",
    "confidence_street_level": "0.6666666666666667"
  },
  {
    "﻿original_N°": "25",
    "original_NOM": "CREPS Ile de France",
    "original_Tutelle": "MSJOP",
    "original_Nombre ETB actif": 1,
    "original_Adresse Siège Social ": "1 RUE DU DOCTEUR LE SAVOUREUX 92290 CHATENAY-MALABRY",
    "original_Code Postal": "92290",
    "original_Département": "92",
    "original_Echelon région": "Ile-de-France",
    "lat": 48.767894,
    "lon": 2.272178,
    "formatted": "73 Rue Du Docteur Le Savoureux, 92290 Châtenay-Malabry, France",
    "name": null,
    "housenumber": "73",
    "street": "Rue Du Docteur Le Savoureux",
    "postcode": "92290",
    "district": "Châtenay-Malabry",
    "suburb": null,
    "city": "Châtenay-Malabry",
    "county": "Hauts-de-Seine",
    "state": "Île-De-France",
    "state_code": "IDF",
    "country": "France",
    "country_code": "fr",
    "confidence": "0.5555555555555556",
    "confidence_city_level": "1",
    "confidence_street_level": "0.5555555555555556"
  },
  {
    "﻿original_N°": "26",
    "original_NOM": "CREPS La Réunion",
    "original_Tutelle": "MSJOP",
    "original_Nombre ETB actif": 3,
    "original_Adresse Siège Social ": "ROUTE PHILIBERT TSIRANANA 97490 SAINT-DENIS",
    "original_Code Postal": "97490",
    "original_Département": "97",
    "original_Echelon région": "La Réunion",
    "lat": -20.891945,
    "lon": 55.469531,
    "formatted": "42 Route Philibert Tsiranana, 97490 RE, France",
    "name": null,
    "housenumber": "42",
    "street": "Route Philibert Tsiranana",
    "postcode": "97490",
    "district": null,
    "suburb": null,
    "city": null,
    "county": null,
    "state": "La Réunion",
    "state_code": "RE",
    "country": "France",
    "country_code": "fr",
    "confidence": "0.5",
    "confidence_city_level": "1",
    "confidence_street_level": "0.5"
  },
  {
    "﻿original_N°": "27",
    "original_NOM": "CREPS Montpellier Font Romeu",
    "original_Tutelle": "MSJOP",
    "original_Nombre ETB actif": 2,
    "original_Adresse Siège Social ": "2 AVENUE CHARLES FLAHAULT 34090 MONTPELLIER",
    "original_Code Postal": "34090",
    "original_Département": "34",
    "original_Echelon région": "Occitanie",
    "lat": 43.619039,
    "lon": 3.866023,
    "formatted": "2 Avenue Charles Flahault, 34090 Montpellier, France",
    "name": null,
    "housenumber": "2",
    "street": "Avenue Charles Flahault",
    "postcode": "34090",
    "district": "Montpellier",
    "suburb": null,
    "city": "Montpellier",
    "county": "Hérault",
    "state": "Occitanie",
    "state_code": "OCC",
    "country": "France",
    "country_code": "fr",
    "confidence": "0.5",
    "confidence_city_level": "1",
    "confidence_street_level": "0.5"
  },
  {
    "﻿original_N°": "28",
    "original_NOM": "CREPS Nancy",
    "original_Tutelle": "MSJOP",
    "original_Nombre ETB actif": 1,
    "original_Adresse Siège Social ": "1 AVENUE FOCH 54270 ESSEY-LES-NANCY",
    "original_Code Postal": "54270",
    "original_Département": "54",
    "original_Echelon région": "Grand Est",
    "lat": 48.7029996,
    "lon": 6.2160884,
    "formatted": "1 Avenue Foch, 54270 Essey-lès-Nancy, France",
    "name": null,
    "housenumber": "1",
    "street": "Avenue Foch",
    "postcode": "54270",
    "district": null,
    "suburb": null,
    "city": "Essey-lès-Nancy",
    "county": "Meurthe-et-Moselle",
    "state": "Grand Est",
    "state_code": "GES",
    "country": "France",
    "country_code": "fr",
    "confidence": "0.2857142857142857",
    "confidence_city_level": "1",
    "confidence_street_level": "0.2857142857142857"
  },
  {
    "﻿original_N°": "29",
    "original_NOM": "CREPS Pays de Loire",
    "original_Tutelle": "MSJOP",
    "original_Nombre ETB actif": 1,
    "original_Adresse Siège Social ": "5 AVENUE DE LA BABINIERE 44240 LA CHAPELLE-SUR-ERDRE",
    "original_Code Postal": "44340",
    "original_Département": "44",
    "original_Echelon région": "Pays-de-la-Loire",
    "lat": 47.171835,
    "lon": -1.618346,
    "formatted": "5 Rue De La Gagnerie, 44340 Bouguenais, France",
    "name": null,
    "housenumber": "5",
    "street": "Rue De La Gagnerie",
    "postcode": "44340",
    "district": "Bouguenais",
    "suburb": null,
    "city": "Bouguenais",
    "county": "Loire-Atlantique",
    "state": "Pays de la Loire",
    "state_code": "PDL",
    "country": "France",
    "country_code": "fr",
    "confidence": "0.22727272727272727",
    "confidence_city_level": "1",
    "confidence_street_level": "0.22727272727272727"
  },
  {
    "﻿original_N°": "30",
    "original_NOM": "CREPS Poitiers",
    "original_Tutelle": "MSJOP",
    "original_Nombre ETB actif": 1,
    "original_Adresse Siège Social ": "CHATEAU DE BOIVRE 86580 VOUNEUIL-SOUS-BIARD",
    "original_Code Postal": "86580",
    "original_Département": "86",
    "original_Echelon région": "Nouvelle Aquitaine",
    "lat": 46.58551888,
    "lon": 0.282858145,
    "formatted": "86580 NAQ, France",
    "name": null,
    "housenumber": null,
    "street": null,
    "postcode": "86580",
    "district": null,
    "suburb": null,
    "city": null,
    "county": "Vienne",
    "state": "Nouvelle-Aquitaine",
    "state_code": "NAQ",
    "country": "France",
    "country_code": "fr",
    "confidence": "0",
    "confidence_city_level": "1",
    "confidence_street_level": null
  },
  {
    "﻿original_N°": "31",
    "original_NOM": "CREPS Reims",
    "original_Tutelle": "MSJOP",
    "original_Nombre ETB actif": 1,
    "original_Adresse Siège Social ": "ROUTE DE BEZANNES 51100 REIMS",
    "original_Code Postal": "51100",
    "original_Département": "51",
    "original_Echelon région": "Grand Est",
    "lat": 49.231188,
    "lon": 3.9972305,
    "formatted": "Route de Bezannes, 51100 Reims, France",
    "name": "Route de Bezannes",
    "housenumber": null,
    "street": "Route de Bezannes",
    "postcode": "51100",
    "district": null,
    "suburb": "Croix-Rouge",
    "city": "Reims",
    "county": "Marne",
    "state": "Grand Est",
    "state_code": "GES",
    "country": "France",
    "country_code": "fr",
    "confidence": "0.6",
    "confidence_city_level": "1",
    "confidence_street_level": "0.6"
  },
  {
    "﻿original_N°": "32",
    "original_NOM": "CREPS Strasbourg",
    "original_Tutelle": "MSJOP",
    "original_Nombre ETB actif": 2,
    "original_Adresse Siège Social ": "4 ALLEE DU SOMMERHOF 67200 STRASBOURG",
    "original_Code Postal": "67200",
    "original_Département": "67",
    "original_Echelon région": "Grand Est",
    "lat": 48.575349,
    "lon": 7.712307,
    "formatted": "2 Allée Du Sommerhof, 67200 Strasbourg, France",
    "name": null,
    "housenumber": "2",
    "street": "Allée Du Sommerhof",
    "postcode": "67200",
    "district": "Strasbourg",
    "suburb": null,
    "city": "Strasbourg",
    "county": "Bas-Rhin",
    "state": "Grand Est",
    "state_code": "GES",
    "country": "France",
    "country_code": "fr",
    "confidence": "0.35720999999999997",
    "confidence_city_level": "1",
    "confidence_street_level": "0.35720999999999997"
  },
  {
    "﻿original_N°": "33",
    "original_NOM": "CREPS Toulouse",
    "original_Tutelle": "MSJOP",
    "original_Nombre ETB actif": 2,
    "original_Adresse Siège Social ": "1 AVENUE EDOUARD BELIN 31400 TOULOUSE",
    "original_Code Postal": "31400",
    "original_Département": "31",
    "original_Echelon région": "Occitanie",
    "lat": 43.570037,
    "lon": 1.474091,
    "formatted": "1 Avenue Edouard Belin, 31400 Toulouse, France",
    "name": null,
    "housenumber": "1",
    "street": "Avenue Edouard Belin",
    "postcode": "31400",
    "district": "Toulouse",
    "suburb": null,
    "city": "Toulouse",
    "county": "Haute-Garonne",
    "state": "Occitanie",
    "state_code": "OCC",
    "country": "France",
    "country_code": "fr",
    "confidence": "0.5",
    "confidence_city_level": "1",
    "confidence_street_level": "0.5"
  },
  {
    "﻿original_N°": "34",
    "original_NOM": "CROUS Aix Marseille-Avignon",
    "original_Tutelle": "MESR",
    "original_Nombre ETB actif": 81,
    "original_Adresse Siège Social ": "31 AVENUE JULES FERRY 13100 AIX-EN-PROVENCE",
    "original_Code Postal": "13100",
    "original_Département": "13",
    "original_Echelon région": "Provence-Alpes-Côte d'Azur",
    "lat": 43.518849,
    "lon": 5.449848,
    "formatted": "31 Avenue Jules Ferry, 13100 Aix-en-Provence, France",
    "name": null,
    "housenumber": "31",
    "street": "Avenue Jules Ferry",
    "postcode": "13100",
    "district": "Aix-en-Provence",
    "suburb": null,
    "city": "Aix-en-Provence",
    "county": "Bouches-du-Rhône",
    "state": "Provence-Alpes-Côte D'Azur",
    "state_code": "PAC",
    "country": "France",
    "country_code": "fr",
    "confidence": "0.375",
    "confidence_city_level": "1",
    "confidence_street_level": "0.375"
  },
  {
    "﻿original_N°": "35",
    "original_NOM": "CROUS Amiens",
    "original_Tutelle": "MESR",
    "original_Nombre ETB actif": 41,
    "original_Adresse Siège Social ": "25 RUE SAINT-LEU 80000 AMIENS",
    "original_Code Postal": "80000",
    "original_Département": "80",
    "original_Echelon région": "Hauts-de-France",
    "lat": 49.8987326,
    "lon": 2.3005574,
    "formatted": "25 Rue Saint-Leu, 80000 Amiens, France",
    "name": null,
    "housenumber": "25",
    "street": "Rue Saint-Leu",
    "postcode": "80000",
    "district": "Saveuse",
    "suburb": null,
    "city": "Amiens",
    "county": "Somme",
    "state": "Hauts-de-France",
    "state_code": "HDF",
    "country": "France",
    "country_code": "fr",
    "confidence": "0.5",
    "confidence_city_level": "1",
    "confidence_street_level": "0.5"
  },
  {
    "﻿original_N°": "36",
    "original_NOM": "CROUS Antilles-Guyane",
    "original_Tutelle": "MESR",
    "original_Nombre ETB actif": 16,
    "original_Adresse Siège Social ": "GESTION SERVICES CENTRAUX, FOUILLOLE 97110 POINTE A PITRE",
    "original_Code Postal": "97110",
    "original_Département": "97",
    "original_Echelon région": "Guyane",
    "lat": null,
    "lon": null,
    "formatted": null,
    "name": null,
    "housenumber": null,
    "street": null,
    "postcode": null,
    "district": null,
    "suburb": null,
    "city": null,
    "county": null,
    "state": null,
    "state_code": null,
    "country": null,
    "country_code": null,
    "confidence": null,
    "confidence_city_level": null,
    "confidence_street_level": null
  },
  {
    "﻿original_N°": "37",
    "original_NOM": "CROUS Bordeaux",
    "original_Tutelle": "MESR",
    "original_Nombre ETB actif": 84,
    "original_Adresse Siège Social ": "18 RUE DU HAMEL 33800 BORDEAUX",
    "original_Code Postal": "33800",
    "original_Département": "33",
    "original_Echelon région": "Nouvelle Aquitaine",
    "lat": 44.8315947,
    "lon": -0.5649853,
    "formatted": "Crous de Bordeaux-Aquitaine, 18 Rue du Hamel, 33800 Bordeaux, France",
    "name": "Crous de Bordeaux-Aquitaine",
    "housenumber": "18",
    "street": "Rue du Hamel",
    "postcode": "33800",
    "district": null,
    "suburb": "Saint-Michel",
    "city": "Bordeaux",
    "county": "Gironde",
    "state": "Nouvelle-Aquitaine",
    "state_code": "NAQ",
    "country": "France",
    "country_code": "fr",
    "confidence": "0.5",
    "confidence_city_level": "1",
    "confidence_street_level": "0.5"
  },
  {
    "﻿original_N°": "38",
    "original_NOM": "CROUS Bourgogne Franche Comté",
    "original_Tutelle": "MESR",
    "original_Nombre ETB actif": 48,
    "original_Adresse Siège Social ": "32 AVENUE DE L'OBSERVATOIRE 25000 BESANCON",
    "original_Code Postal": "25000",
    "original_Département": "25",
    "original_Echelon région": "Bourgogne-Franche Comté",
    "lat": 47.24775,
    "lon": 5.990266,
    "formatted": "32 Avenue de l'Observatoire, 25000 Besançon, France",
    "name": null,
    "housenumber": "32",
    "street": "Avenue de l'Observatoire",
    "postcode": "25000",
    "district": null,
    "suburb": "Bouloie",
    "city": "Besançon",
    "county": "Doubs",
    "state": "Bourgogne-Franche-Comté",
    "state_code": "BFC",
    "country": "France",
    "country_code": "fr",
    "confidence": "0.5",
    "confidence_city_level": "1",
    "confidence_street_level": "0.5"
  },
  {
    "﻿original_N°": "39",
    "original_NOM": "CROUS Clermont Auvergne",
    "original_Tutelle": "MESR",
    "original_Nombre ETB actif": 19,
    "original_Adresse Siège Social ": "25 RUE ETIENNE DOLET 63000 CLERMONT-FERRAND",
    "original_Code Postal": "63000",
    "original_Département": "63",
    "original_Echelon région": "Auvergne-Rhône-Alpes",
    "lat": 45.7649178,
    "lon": 3.0866464,
    "formatted": "25 Rue Étienne Dolet, 63000 Clermont-Ferrand, France",
    "name": null,
    "housenumber": "25",
    "street": "Rue Étienne Dolet",
    "postcode": "63000",
    "district": null,
    "suburb": "Saint-Jacques",
    "city": "Clermont-Ferrand",
    "county": "Puy-de-Dôme",
    "state": "Auvergne-Rhône-Alpes",
    "state_code": "ARA",
    "country": "France",
    "country_code": "fr",
    "confidence": "0.2250423",
    "confidence_city_level": "1",
    "confidence_street_level": "0.2250423"
  },
  {
    "﻿original_N°": "40",
    "original_NOM": "CROUS Créteil",
    "original_Tutelle": "MESR",
    "original_Nombre ETB actif": 57,
    "original_Adresse Siège Social ": "70 AVENUE DU GENERAL DE GAULLE 94000 CRETEIL",
    "original_Code Postal": "94000",
    "original_Département": "94",
    "original_Echelon région": "Ile-de-France",
    "lat": 48.79446,
    "lon": 2.447774,
    "formatted": "70 Avenue Du Général De Gaulle, 94000 Créteil, France",
    "name": null,
    "housenumber": "70",
    "street": "Avenue Du Général De Gaulle",
    "postcode": "94000",
    "district": "Créteil",
    "suburb": null,
    "city": "Créteil",
    "county": "Val-de-Marne",
    "state": "Île-De-France",
    "state_code": "IDF",
    "country": "France",
    "country_code": "fr",
    "confidence": "0.25004699999999996",
    "confidence_city_level": "1",
    "confidence_street_level": "0.25004699999999996"
  },
  {
    "﻿original_N°": "41",
    "original_NOM": "CROUS de Corse - Corte",
    "original_Tutelle": "MESR",
    "original_Nombre ETB actif": 4,
    "original_Adresse Siège Social ": "22 AVENUE JEAN NICOLI 20250 CORTE",
    "original_Code Postal": "20250",
    "original_Département": "20",
    "original_Echelon région": "Corse",
    "lat": 42.3062044,
    "lon": 9.1559785,
    "formatted": "Avenue Jean Nicoli, 20250 Corte, France",
    "name": "Avenue Jean Nicoli",
    "housenumber": null,
    "street": "Avenue Jean Nicoli",
    "postcode": "20250",
    "district": "Porette",
    "suburb": null,
    "city": "Corte",
    "county": "Haute-Corse",
    "state": "Corse",
    "state_code": "COR",
    "country": "France",
    "country_code": "fr",
    "confidence": "0.5",
    "confidence_city_level": "1",
    "confidence_street_level": "0.5"
  },
  {
    "﻿original_N°": "42",
    "original_NOM": "CROUS Grenoble",
    "original_Tutelle": "MESR",
    "original_Nombre ETB actif": 59,
    "original_Adresse Siège Social ": "80 ALL AMPERE 38400 SAINT MARTIN D'HERES",
    "original_Code Postal": "38400",
    "original_Département": "38",
    "original_Echelon région": "Auvergne-Rhône-Alpes",
    "lat": 45.1932004,
    "lon": 5.7644734,
    "formatted": "Service Accueil Handicap, 80 Allée Ampère, 38400 Saint-Martin-d'Hères, France",
    "name": "Service Accueil Handicap",
    "housenumber": "80",
    "street": "Allée Ampère",
    "postcode": "38400",
    "district": null,
    "suburb": "Domaine universitaire de Grenoble",
    "city": "Saint-Martin-d'Hères",
    "county": "Isère",
    "state": "Auvergne-Rhône-Alpes",
    "state_code": "ARA",
    "country": "France",
    "country_code": "fr",
    "confidence": "0.14177664899999998",
    "confidence_city_level": "1",
    "confidence_street_level": "0.14177664899999998"
  },
  {
    "﻿original_N°": "43",
    "original_NOM": "CROUS La Réunion et Mayotte - Ste Clotilde",
    "original_Tutelle": "MESR",
    "original_Nombre ETB actif": 2,
    "original_Adresse Siège Social ": "SERVICE TRAITEMENT 20 AVENUE HIPPOLYTE FOUCQUE 97490 SAINT-DENIS",
    "original_Code Postal": "97490",
    "original_Département": "97",
    "original_Echelon région": "Mayotte",
    "lat": -20.89914,
    "lon": 55.486488,
    "formatted": "20 Avenue Hippolyte Foucque, 97490 RE, France",
    "name": null,
    "housenumber": "20",
    "street": "Avenue Hippolyte Foucque",
    "postcode": "97490",
    "district": null,
    "suburb": null,
    "city": null,
    "county": null,
    "state": "La Réunion",
    "state_code": "RE",
    "country": "France",
    "country_code": "fr",
    "confidence": "0.33333333333333337",
    "confidence_city_level": "1",
    "confidence_street_level": "0.33333333333333337"
  },
  {
    "﻿original_N°": "44",
    "original_NOM": "CROUS Lille",
    "original_Tutelle": "MESR",
    "original_Nombre ETB actif": 75,
    "original_Adresse Siège Social ": "CROUS, CITE MARIANNE 2 BOULEVARD DE STRASBOURG 59000 LILLE",
    "original_Code Postal": "59000",
    "original_Département": "59",
    "original_Echelon région": "Hauts-de-France",
    "lat": 50.618694,
    "lon": 3.053221,
    "formatted": "35 Boulevard De Strasbourg, 59000 Lille, France",
    "name": null,
    "housenumber": "35",
    "street": "Boulevard De Strasbourg",
    "postcode": "59000",
    "district": "Lille",
    "suburb": null,
    "city": "Lille",
    "county": "Nord",
    "state": "Hauts-de-France",
    "state_code": "HDF",
    "country": "France",
    "country_code": "fr",
    "confidence": "0.33333333333333337",
    "confidence_city_level": "1",
    "confidence_street_level": "0.33333333333333337"
  },
  {
    "﻿original_N°": "45",
    "original_NOM": "CROUS Limoges",
    "original_Tutelle": "MESR",
    "original_Nombre ETB actif": 15,
    "original_Adresse Siège Social ": "39 G RUE CAMILLE GUERIN 87000 LIMOGES",
    "original_Code Postal": "87000",
    "original_Département": "87",
    "original_Echelon région": "Nouvelle Aquitaine",
    "lat": 45.817538,
    "lon": 1.232069,
    "formatted": "39h Rue Camille Guérin, 87000 Limoges, France",
    "name": null,
    "housenumber": "39h",
    "street": "Rue Camille Guérin",
    "postcode": "87000",
    "district": "Limoges",
    "suburb": null,
    "city": "Limoges",
    "county": "Haute-Vienne",
    "state": "Nouvelle-Aquitaine",
    "state_code": "NAQ",
    "country": "France",
    "country_code": "fr",
    "confidence": "0.2250423",
    "confidence_city_level": "1",
    "confidence_street_level": "0.2250423"
  },
  {
    "﻿original_N°": "46",
    "original_NOM": "CROUS Lorraine - Nancy",
    "original_Tutelle": "MESR",
    "original_Nombre ETB actif": 41,
    "original_Adresse Siège Social ": "75 RUE DE LAXOU 54000 NANCY",
    "original_Code Postal": "54000",
    "original_Département": "54",
    "original_Echelon région": "Grand Est",
    "lat": 48.684516,
    "lon": 6.158527,
    "formatted": "75 Rue De Laxou, 54000 Laxou, France",
    "name": null,
    "housenumber": "75",
    "street": "Rue De Laxou",
    "postcode": "54000",
    "district": "Laxou",
    "suburb": null,
    "city": "Laxou",
    "county": "Meurthe-et-Moselle",
    "state": "Grand Est",
    "state_code": "GES",
    "country": "France",
    "country_code": "fr",
    "confidence": "0.5",
    "confidence_city_level": "1",
    "confidence_street_level": "0.5"
  },
  {
    "﻿original_N°": "47",
    "original_NOM": "CROUS Lyon-St Etienne",
    "original_Tutelle": "MESR",
    "original_Nombre ETB actif": 95,
    "original_Adresse Siège Social ": "59 RUE DE LA MADELEINE 69007 LYON",
    "original_Code Postal": "69007",
    "original_Département": "69",
    "original_Echelon région": "Auvergne-Rhône-Alpes",
    "lat": 45.7457245,
    "lon": 4.8484709,
    "formatted": "59 Rue de la Madeleine, 69007 Lyon, France",
    "name": null,
    "housenumber": "59",
    "street": "Rue de la Madeleine",
    "postcode": "69007",
    "district": null,
    "suburb": "Jean-Macé",
    "city": "Lyon",
    "county": "Métropole de Lyon",
    "state": "Auvergne-Rhône-Alpes",
    "state_code": "ARA",
    "country": "France",
    "country_code": "fr",
    "confidence": "0.5714285714285714",
    "confidence_city_level": "1",
    "confidence_street_level": "0.5714285714285714"
  },
  {
    "﻿original_N°": "48",
    "original_NOM": "CROUS Montpellier Occitanie",
    "original_Tutelle": "MESR",
    "original_Nombre ETB actif": 88,
    "original_Adresse Siège Social ": "2 RUE MONTEIL 34090 MONTPELLIER",
    "original_Code Postal": "34090",
    "original_Département": "34",
    "original_Echelon région": "Occitanie",
    "lat": 43.623032,
    "lon": 3.869339,
    "formatted": "17 Rue Monteil, 34090 Montpellier, France",
    "name": null,
    "housenumber": "17",
    "street": "Rue Monteil",
    "postcode": "34090",
    "district": "Montpellier",
    "suburb": null,
    "city": "Montpellier",
    "county": "Hérault",
    "state": "Occitanie",
    "state_code": "OCC",
    "country": "France",
    "country_code": "fr",
    "confidence": "0.4",
    "confidence_city_level": "1",
    "confidence_street_level": "0.4"
  },
  {
    "﻿original_N°": "49",
    "original_NOM": "CROUS Nantes Pays de Loire",
    "original_Tutelle": "MESR",
    "original_Nombre ETB actif": 92,
    "original_Adresse Siège Social ": "2 BOULEVARD GUY MOLLET 44300 NANTES",
    "original_Code Postal": "44300",
    "original_Département": "44",
    "original_Echelon région": "Pays-de-la-Loire",
    "lat": 47.251845,
    "lon": -1.55377,
    "formatted": "33 Boulevard Guy Mollet, 44300 Nantes, France",
    "name": null,
    "housenumber": "33",
    "street": "Boulevard Guy Mollet",
    "postcode": "44300",
    "district": "Nantes",
    "suburb": null,
    "city": "Nantes",
    "county": "Loire-Atlantique",
    "state": "Pays de la Loire",
    "state_code": "PDL",
    "country": "France",
    "country_code": "fr",
    "confidence": "0.5",
    "confidence_city_level": "1",
    "confidence_street_level": "0.5"
  },
  {
    "﻿original_N°": "50",
    "original_NOM": "CROUS Nice Toulon",
    "original_Tutelle": "MESR",
    "original_Nombre ETB actif": 34,
    "original_Adresse Siège Social ": "26 ROUTE DE TURIN 06300 NICE",
    "original_Code Postal": "6300",
    "original_Département": "6",
    "original_Echelon région": "Provence-Alpes-Côte d'Azur",
    "lat": 43.710963,
    "lon": 7.284964,
    "formatted": "26 Route De Turin, 06300 Nice, France",
    "name": null,
    "housenumber": "26",
    "street": "Route De Turin",
    "postcode": "6300",
    "district": "Nice",
    "suburb": null,
    "city": "Nice",
    "county": "Alpes-Maritimes",
    "state": "Provence-Alpes-Côte D'Azur",
    "state_code": "PAC",
    "country": "France",
    "country_code": "fr",
    "confidence": "0.5",
    "confidence_city_level": "1",
    "confidence_street_level": "0.5"
  },
  {
    "﻿original_N°": "51",
    "original_NOM": "CROUS Normandie - Rouen",
    "original_Tutelle": "MESR",
    "original_Nombre ETB actif": 60,
    "original_Adresse Siège Social ": "135 BOULEVARD DE L'EUROPE 76100 ROUEN",
    "original_Code Postal": "76100",
    "original_Département": "76",
    "original_Echelon région": "Normandie",
    "lat": 49.430218,
    "lon": 1.0786216,
    "formatted": "Centre régional des œuvres universitaires et scolaires Rouen Normandie, 135 Boulevard de l'Europe, 76100 Rouen, France",
    "name": "Centre régional des œuvres universitaires et scolaires Rouen Normandie",
    "housenumber": "135",
    "street": "Boulevard de l'Europe",
    "postcode": "76100",
    "district": "Saint-Clément",
    "suburb": "Quartier Saint-Clément / Jardin des Plantes",
    "city": "Rouen",
    "county": "Seine-Maritime",
    "state": "Normandie",
    "state_code": "NOR",
    "country": "France",
    "country_code": "fr",
    "confidence": "0.5",
    "confidence_city_level": "1",
    "confidence_street_level": "0.5"
  },
  {
    "﻿original_N°": "52",
    "original_NOM": "CROUS Orléans Tours",
    "original_Tutelle": "MESR",
    "original_Nombre ETB actif": 54,
    "original_Adresse Siège Social ": "17 AVENUE DAUPHINE 45100 ORLEANS",
    "original_Code Postal": "45100",
    "original_Département": "45",
    "original_Echelon région": "Centre Val-de-Loir",
    "lat": 47.8935965,
    "lon": 1.9052976,
    "formatted": "CROUS d'Orléans-Tours, 17 Avenue Dauphine, 45100 Orléans, France",
    "name": "CROUS d'Orléans-Tours",
    "housenumber": "17",
    "street": "Avenue Dauphine",
    "postcode": "45100",
    "district": null,
    "suburb": null,
    "city": "Orléans",
    "county": "Loiret",
    "state": "Centre-Val de Loire",
    "state_code": "CVL",
    "country": "France",
    "country_code": "fr",
    "confidence": "0.4",
    "confidence_city_level": "1",
    "confidence_street_level": "0.4"
  },
  {
    "﻿original_N°": "53",
    "original_NOM": "CROUS Paris",
    "original_Tutelle": "MESR",
    "original_Nombre ETB actif": 158,
    "original_Adresse Siège Social ": "39 AVENUE GEORGES BERNANOS 75005 PARIS",
    "original_Code Postal": "75005",
    "original_Département": "75",
    "original_Echelon région": "Ile-de-France",
    "lat": 48.8400649,
    "lon": 2.3373976,
    "formatted": "39 Avenue Georges Bernanos, 75005 Paris, France",
    "name": null,
    "housenumber": "39",
    "street": "Avenue Georges Bernanos",
    "postcode": "75005",
    "district": "Paris",
    "suburb": "Paris 5e Arrondissement",
    "city": "Paris",
    "county": null,
    "state": "Île-de-France",
    "state_code": "IDF",
    "country": "France",
    "country_code": "fr",
    "confidence": "0.5",
    "confidence_city_level": "1",
    "confidence_street_level": "0.5"
  },
  {
    "﻿original_N°": "54",
    "original_NOM": "CROUS Poitiers",
    "original_Tutelle": "MESR",
    "original_Nombre ETB actif": 54,
    "original_Adresse Siège Social ": "15 RUE GUILLAUME 7 LE TROUBADOUR 86000 POITIERS",
    "original_Code Postal": "86000",
    "original_Département": "86",
    "original_Echelon région": "Nouvelle Aquitaine",
    "lat": 46.5879246,
    "lon": 0.3457651,
    "formatted": "Rue Guillaume 7 le Troubadour, 86000 Poitiers, France",
    "name": "Rue Guillaume 7 le Troubadour",
    "housenumber": null,
    "street": "Rue Guillaume 7 le Troubadour",
    "postcode": "86000",
    "district": "Notre-Dame",
    "suburb": null,
    "city": "Poitiers",
    "county": "Vienne",
    "state": "Nouvelle-Aquitaine",
    "state_code": "NAQ",
    "country": "France",
    "country_code": "fr",
    "confidence": "0.625",
    "confidence_city_level": "1",
    "confidence_street_level": "0.625"
  },
  {
    "﻿original_N°": "55",
    "original_NOM": "CROUS Reims",
    "original_Tutelle": "MESR",
    "original_Nombre ETB actif": 19,
    "original_Adresse Siège Social ": "14 B ALLEE DES LANDAIS 51100 REIMS",
    "original_Code Postal": "51100",
    "original_Département": "51",
    "original_Echelon région": "Grand Est",
    "lat": 49.2301905,
    "lon": 4.0113272,
    "formatted": "Allée des Landais, 51100 Reims, France",
    "name": "Allée des Landais",
    "housenumber": null,
    "street": "Allée des Landais",
    "postcode": "51100",
    "district": "Cézanne",
    "suburb": "Croix-Rouge",
    "city": "Reims",
    "county": "Marne",
    "state": "Grand Est",
    "state_code": "GES",
    "country": "France",
    "country_code": "fr",
    "confidence": "0.2857142857142857",
    "confidence_city_level": "1",
    "confidence_street_level": "0.2857142857142857"
  },
  {
    "﻿original_N°": "56",
    "original_NOM": "CROUS Rennes",
    "original_Tutelle": "MESR",
    "original_Nombre ETB actif": 69,
    "original_Adresse Siège Social ": "7 PLACE HOCHE 35000 RENNES",
    "original_Code Postal": "35000",
    "original_Département": "35",
    "original_Echelon région": "Bretagne",
    "lat": 48.115081,
    "lon": -1.67786,
    "formatted": "1 Place Hoche, 35000 Rennes, France",
    "name": null,
    "housenumber": "1",
    "street": "Place Hoche",
    "postcode": "35000",
    "district": "Rennes",
    "suburb": null,
    "city": "Rennes",
    "county": "Ille-et-Vilaine",
    "state": "Bretagne",
    "state_code": "BRE",
    "country": "France",
    "country_code": "fr",
    "confidence": "0.4",
    "confidence_city_level": "1",
    "confidence_street_level": "0.4"
  },
  {
    "﻿original_N°": "57",
    "original_NOM": "CROUS Strasbourg",
    "original_Tutelle": "MESR",
    "original_Nombre ETB actif": 29,
    "original_Adresse Siège Social ": "1 QUAI DU MAIRE DIETRICH 67000 STRASBOURG",
    "original_Code Postal": "67000",
    "original_Département": "67",
    "original_Echelon région": "Grand Est",
    "lat": 48.584437,
    "lon": 7.759346,
    "formatted": "1 Quai Du Maire Dietrich, 67000 Strasbourg, France",
    "name": null,
    "housenumber": "1",
    "street": "Quai Du Maire Dietrich",
    "postcode": "67000",
    "district": "Strasbourg",
    "suburb": null,
    "city": "Strasbourg",
    "county": "Bas-Rhin",
    "state": "Grand Est",
    "state_code": "GES",
    "country": "France",
    "country_code": "fr",
    "confidence": "0.5714285714285714",
    "confidence_city_level": "1",
    "confidence_street_level": "0.5714285714285714"
  },
  {
    "﻿original_N°": "58",
    "original_NOM": "CROUS Toulouse Occitanie",
    "original_Tutelle": "MESR",
    "original_Nombre ETB actif": 53,
    "original_Adresse Siège Social ": "58 RUE DU TAUR 31000 TOULOUSE",
    "original_Code Postal": "31000",
    "original_Département": "31",
    "original_Echelon région": "Occitanie",
    "lat": 43.6074056,
    "lon": 1.4421652,
    "formatted": "58 Rue du Taur, 31000 Toulouse, France",
    "name": null,
    "housenumber": "58",
    "street": "Rue du Taur",
    "postcode": "31000",
    "district": "Place Occitane",
    "suburb": "Toulouse Centre",
    "city": "Toulouse",
    "county": "Haute-Garonne",
    "state": "Occitanie",
    "state_code": "OCC",
    "country": "France",
    "country_code": "fr",
    "confidence": "0.5",
    "confidence_city_level": "1",
    "confidence_street_level": "0.5"
  },
  {
    "﻿original_N°": "59",
    "original_NOM": "CROUS Versailles",
    "original_Tutelle": "MESR",
    "original_Nombre ETB actif": 86,
    "original_Adresse Siège Social ": "145 B BOULEVARD DE LA REINE 78000 VERSAILLES",
    "original_Code Postal": "78000",
    "original_Département": "78",
    "original_Echelon région": "Ile-de-France",
    "lat": 48.8095057,
    "lon": 2.1278708,
    "formatted": "Boulevard de la Reine, 78000 Versailles, France",
    "name": "Boulevard de la Reine",
    "housenumber": null,
    "street": "Boulevard de la Reine",
    "postcode": "78000",
    "district": null,
    "suburb": "Notre-Dame",
    "city": "Versailles",
    "county": "Yvelines",
    "state": "Île-de-France",
    "state_code": "IDF",
    "country": "France",
    "country_code": "fr",
    "confidence": "0.5",
    "confidence_city_level": "1",
    "confidence_street_level": "0.5"
  },
  {
    "﻿original_N°": "60",
    "original_NOM": "Ecole Centrale Lyon",
    "original_Tutelle": "MESR",
    "original_Nombre ETB actif": 2,
    "original_Adresse Siège Social ": "36 AVENUE GUY DE COLLONGUE 69130 ECULLY",
    "original_Code Postal": "69130",
    "original_Département": "69",
    "original_Echelon région": "Auvergne-Rhône-Alpes",
    "lat": 45.7826438,
    "lon": 4.7663904,
    "formatted": "36 Avenue Guy de Collongue, 69130 Écully, France",
    "name": null,
    "housenumber": "36",
    "street": "Avenue Guy de Collongue",
    "postcode": "69130",
    "district": null,
    "suburb": null,
    "city": "Écully",
    "county": "Métropole de Lyon",
    "state": "Auvergne-Rhône-Alpes",
    "state_code": "ARA",
    "country": "France",
    "country_code": "fr",
    "confidence": "0.5714285714285714",
    "confidence_city_level": "1",
    "confidence_street_level": "0.5714285714285714"
  },
  {
    "﻿original_N°": "61",
    "original_NOM": "Ecole centrale Marseille",
    "original_Tutelle": "MESR",
    "original_Nombre ETB actif": 1,
    "original_Adresse Siège Social ": "TECHNOPOLE CHATEAU GOMBERT 38 RUE FREDERIC JOLIOT-CURIE 13013 MARSEILLE",
    "original_Code Postal": "13013",
    "original_Département": "13",
    "original_Echelon région": "Provence-Alpes-Côte d'Azur",
    "lat": 43.342212,
    "lon": 5.436268,
    "formatted": "43 Rue Frederic Joliot-curie, 13013 Marseille, France",
    "name": null,
    "housenumber": "43",
    "street": "Rue Frederic Joliot-curie",
    "postcode": "13013",
    "district": "13e Arr.",
    "suburb": null,
    "city": "Marseille",
    "county": "Bouches-du-Rhône",
    "state": "Provence-Alpes-Côte D'Azur",
    "state_code": "PAC",
    "country": "France",
    "country_code": "fr",
    "confidence": "0.4",
    "confidence_city_level": "1",
    "confidence_street_level": "0.4"
  },
  {
    "﻿original_N°": "62",
    "original_NOM": "Ecole Centrale Nantes",
    "original_Tutelle": "MESR",
    "original_Nombre ETB actif": 1,
    "original_Adresse Siège Social ": "1 RUE DE LA NOE 44300 NANTES",
    "original_Code Postal": "44300",
    "original_Département": "44",
    "original_Echelon région": "Pays-de-la-Loire",
    "lat": 47.24804,
    "lon": -1.550293,
    "formatted": "1 Rue De La Noë, 44300 Nantes, France",
    "name": null,
    "housenumber": "1",
    "street": "Rue De La Noë",
    "postcode": "44300",
    "district": "Nantes",
    "suburb": null,
    "city": "Nantes",
    "county": "Loire-Atlantique",
    "state": "Pays de la Loire",
    "state_code": "PDL",
    "country": "France",
    "country_code": "fr",
    "confidence": "0.35720999999999997",
    "confidence_city_level": "1",
    "confidence_street_level": "0.35720999999999997"
  },
  {
    "﻿original_N°": "63",
    "original_NOM": "Ecole d'Economie et de Sciences Sociales Quantitatives de Toulouse - TSE Toulouse",
    "original_Tutelle": "MESR",
    "original_Nombre ETB actif": 1,
    "original_Adresse Siège Social ": "1 ESPLANADE DE L'UNIVERSITE 31000 TOULOUSE",
    "original_Code Postal": "31000",
    "original_Département": "31",
    "original_Echelon région": "Occitanie",
    "lat": 43.60445,
    "lon": 1.434931,
    "formatted": "1 Esplanade De l'Université, 31000 Toulouse, France",
    "name": null,
    "housenumber": "1",
    "street": "Esplanade De l'Université",
    "postcode": "31000",
    "district": "Toulouse",
    "suburb": null,
    "city": "Toulouse",
    "county": "Haute-Garonne",
    "state": "Occitanie",
    "state_code": "OCC",
    "country": "France",
    "country_code": "fr",
    "confidence": "0.35720999999999997",
    "confidence_city_level": "1",
    "confidence_street_level": "0.35720999999999997"
  },
  {
    "﻿original_N°": "64",
    "original_NOM": "Ecole des Hautes Etudes en Sciences Sociales - Paris",
    "original_Tutelle": "MESR",
    "original_Nombre ETB actif": 2,
    "original_Adresse Siège Social ": "54 BOULEVARD RASPAIL 75006 PARIS",
    "original_Code Postal": "75006",
    "original_Département": "75",
    "original_Echelon région": "Ile-de-France",
    "lat": 48.8501738,
    "lon": 2.3269799,
    "formatted": "54 Boulevard Raspail, 75006 Paris, France",
    "name": null,
    "housenumber": "54",
    "street": "Boulevard Raspail",
    "postcode": "75006",
    "district": "Paris",
    "suburb": "Paris 6e Arrondissement",
    "city": "Paris",
    "county": null,
    "state": "Île-de-France",
    "state_code": "IDF",
    "country": "France",
    "country_code": "fr",
    "confidence": "0.4",
    "confidence_city_level": "1",
    "confidence_street_level": "0.4"
  },
  {
    "﻿original_N°": "65",
    "original_NOM": "Ecole Française d'Athènes",
    "original_Tutelle": "MESR",
    "original_Nombre ETB actif": 1,
    "original_Adresse Siège Social ": "6 RUE DIDOTOU ATHENES GRECE",
    "original_Code Postal": "GRECE",
    "original_Département": "GR",
    "original_Echelon région": "ETRANGER",
    "lat": 37.982503280069295, 
    "lon": 23.73799804210054,
    "formatted": "6 Rue Grand Rue, 37330 St.-Laurent-de-Lin, France",
    "name": null,
    "housenumber": "6",
    "street": "Rue Grand Rue",
    "postcode": "37330",
    "district": "Saint-Laurent-de-Lin",
    "suburb": null,
    "city": "St.-Laurent-de-Lin",
    "county": "Indre-et-Loire",
    "state": "Centre-Val de Loire",
    "state_code": "CVL",
    "country": "France",
    "country_code": "fr",
    "confidence": "0",
    "confidence_city_level": null,
    "confidence_street_level": null
  },
  {
    "﻿original_N°": "66",
    "original_NOM": "Ecole Française de Rome",
    "original_Tutelle": "MESR",
    "original_Nombre ETB actif": 2,
    "original_Adresse Siège Social ": "62 RUE PIAZZA NAVONA ROME ITALIE",
    "original_Code Postal": "IT",
    "original_Département": "IT",
    "original_Echelon région": "ETRANGER",
    "lat": 41.89505037835572, 
    "lon": 12.470982569182112,
    "formatted": "11 Rue Pascal Piazza, 34410 Sérignan, France",
    "name": null,
    "housenumber": "11",
    "street": "Rue Pascal Piazza",
    "postcode": "34410",
    "district": "Sérignan",
    "suburb": null,
    "city": "Sérignan",
    "county": "Hérault",
    "state": "Occitanie",
    "state_code": "OCC",
    "country": "France",
    "country_code": "fr",
    "confidence": "0",
    "confidence_city_level": null,
    "confidence_street_level": null
  },
  {
    "﻿original_N°": "67",
    "original_NOM": "Ecole française d'Extrême Orient",
    "original_Tutelle": "MESR",
    "original_Nombre ETB actif": 2,
    "original_Adresse Siège Social ": "22 AVENUE DU PRESIDENT WILSON 75016 PARIS",
    "original_Code Postal": "75016",
    "original_Département": "75",
    "original_Echelon région": "Ile-de-France",
    "lat": 48.8632243,
    "lon": 2.2885594,
    "formatted": "Avenue du Président Wilson, 75016 Paris, France",
    "name": "Avenue du Président Wilson",
    "housenumber": null,
    "street": "Avenue du Président Wilson",
    "postcode": "75016",
    "district": "Paris",
    "suburb": "Paris 16e Arrondissement",
    "city": "Paris",
    "county": null,
    "state": "Île-de-France",
    "state_code": "IDF",
    "country": "France",
    "country_code": "fr",
    "confidence": "0.25004699999999996",
    "confidence_city_level": "1",
    "confidence_street_level": "0.25004699999999996"
  },
  {
    "﻿original_N°": "68",
    "original_NOM": "Ecole Nationale Supérieure d'Arts et Métiers",
    "original_Tutelle": "MESR",
    "original_Nombre ETB actif": 10,
    "original_Adresse Siège Social ": "151 BOULEVARD DE L'HOPITAL 75013 PARIS",
    "original_Code Postal": "75013",
    "original_Département": "75",
    "original_Echelon région": "Ile-de-France",
    "lat": 48.8337779,
    "lon": 2.3575561,
    "formatted": "151 Boulevard de l'Hôpital, 75013 Paris, France",
    "name": null,
    "housenumber": "151",
    "street": "Boulevard de l'Hôpital",
    "postcode": "75013",
    "district": "Paris",
    "suburb": "Paris 13e Arrondissement",
    "city": "Paris",
    "county": null,
    "state": "Île-de-France",
    "state_code": "IDF",
    "country": "France",
    "country_code": "fr",
    "confidence": "0.25004699999999996",
    "confidence_city_level": "1",
    "confidence_street_level": "0.25004699999999996"
  },
  {
    "﻿original_N°": "69",
    "original_NOM": "Ecole Pratique des Hautes Etudes - PSL",
    "original_Tutelle": "MESR",
    "original_Nombre ETB actif": 7,
    "original_Adresse Siège Social ": "4-14 4 RUE FERRUS 75014 PARIS",
    "original_Code Postal": "75014",
    "original_Département": "75",
    "original_Echelon région": "Ile-de-France",
    "lat": 48.8310084,
    "lon": 2.3406731,
    "formatted": "Rue Ferrus, 75014 Paris, France",
    "name": "Rue Ferrus",
    "housenumber": null,
    "street": "Rue Ferrus",
    "postcode": "75014",
    "district": "Paris",
    "suburb": "Quartier du Parc-de-Montsouris",
    "city": "Paris",
    "county": null,
    "state": "Île-de-France",
    "state_code": "IDF",
    "country": "France",
    "country_code": "fr",
    "confidence": "0.2857142857142857",
    "confidence_city_level": "1",
    "confidence_street_level": "0.2857142857142857"
  },
  {
    "﻿original_N°": "70",
    "original_NOM": "EN des Chartes - PSL",
    "original_Tutelle": "MESR",
    "original_Nombre ETB actif": 2,
    "original_Adresse Siège Social ": "65 RUE DE RICHELIEU 75002 PARIS",
    "original_Code Postal": "75002",
    "original_Département": "75",
    "original_Echelon région": "Ile-de-France",
    "lat": 48.8705426,
    "lon": 2.3393606,
    "formatted": "Rue de Richelieu, 75002 Paris, France",
    "name": "Rue de Richelieu",
    "housenumber": null,
    "street": "Rue de Richelieu",
    "postcode": "75002",
    "district": "Paris",
    "suburb": "Paris 2e Arrondissement",
    "city": "Paris",
    "county": null,
    "state": "Île-de-France",
    "state_code": "IDF",
    "country": "France",
    "country_code": "fr",
    "confidence": "0.5",
    "confidence_city_level": "1",
    "confidence_street_level": "0.5"
  },
  {
    "﻿original_N°": "71",
    "original_NOM": "EN des Sports de Montagne - Chamonix",
    "original_Tutelle": "MSJOP",
    "original_Nombre ETB actif": 2,
    "original_Adresse Siège Social ": "35 ROUTE DU BOUCHET 74400 CHAMONIX-MONT-BLANC",
    "original_Code Postal": "74400",
    "original_Département": "74",
    "original_Echelon région": "Auvergne-Rhône-Alpes",
    "lat": 45.925557999999995,
    "lon": 6.873089076659762,
    "formatted": "École Nationale de Ski et d'Alpinisme (ENSA), 35 Route du Bouchet, 74400 Chamonix-Mont-Blanc, France",
    "name": "École Nationale de Ski et d'Alpinisme (ENSA)",
    "housenumber": "35",
    "street": "Route du Bouchet",
    "postcode": "74400",
    "district": null,
    "suburb": null,
    "city": "Chamonix-Mont-Blanc",
    "county": "Haute-Savoie",
    "state": "Auvergne-Rhône-Alpes",
    "state_code": "ARA",
    "country": "France",
    "country_code": "fr",
    "confidence": "0.375",
    "confidence_city_level": "1",
    "confidence_street_level": "0.375"
  },
  {
    "﻿original_N°": "72",
    "original_NOM": "EN des Sports de Voile et des Sports Nautiques - St Pierre Quiberon",
    "original_Tutelle": "MSJOP",
    "original_Nombre ETB actif": 1,
    "original_Adresse Siège Social ": "LE BEG ROHU 56510 SAINT-PIERRE-QUIBERON",
    "original_Code Postal": "56510",
    "original_Département": "56",
    "original_Echelon région": "Bretagne",
    "lat": 47.507711,
    "lon": -3.121001,
    "formatted": "16 Le Petit Rohu, 56510 Saint-Pierre-Quiberon, France",
    "name": null,
    "housenumber": "16",
    "street": "Le Petit Rohu",
    "postcode": "56510",
    "district": "Saint-Pierre-Quiberon",
    "suburb": null,
    "city": "Saint-Pierre-Quiberon",
    "county": "Morbihan",
    "state": "Bretagne",
    "state_code": "BRE",
    "country": "France",
    "country_code": "fr",
    "confidence": "0.13636363636363635",
    "confidence_city_level": "1",
    "confidence_street_level": "0.13636363636363635"
  },
  {
    "﻿original_N°": "73",
    "original_NOM": "EN d'Ingénieurs de Brest",
    "original_Tutelle": "MESR",
    "original_Nombre ETB actif": 1,
    "original_Adresse Siège Social ": "TECHNOPOLE BREST IROISE LA POINTE DU DIABLE 29280 PLOUZANE",
    "original_Code Postal": "29280",
    "original_Département": "29",
    "original_Echelon région": "Bretagne",
    "lat": 48.360282,
    "lon": -4.567182,
    "formatted": "Technopôle Pointe du Diable, 29280 Plouzané, France",
    "name": null,
    "housenumber": null,
    "street": "Technopôle Pointe du Diable",
    "postcode": "29280",
    "district": "Plouzané",
    "suburb": null,
    "city": "Plouzané",
    "county": "Finistère",
    "state": "Bretagne",
    "state_code": "BRE",
    "country": "France",
    "country_code": "fr",
    "confidence": "0",
    "confidence_city_level": null,
    "confidence_street_level": null
  },
  {
    "﻿original_N°": "74",
    "original_NOM": "ENS - membre de l'Université Paris Sciences et Lettres",
    "original_Tutelle": "MESR",
    "original_Nombre ETB actif": 4,
    "original_Adresse Siège Social ": "45 RUE D'ULM 75005 PARIS",
    "original_Code Postal": "75005",
    "original_Département": "75",
    "original_Echelon région": "Ile-de-France",
    "lat": 48.8418371,
    "lon": 2.3440403,
    "formatted": "45 Rue d'Ulm, 75005 Paris, France",
    "name": null,
    "housenumber": "45",
    "street": "Rue d'Ulm",
    "postcode": "75005",
    "district": "Paris",
    "suburb": "Paris 5e Arrondissement",
    "city": "Paris",
    "county": null,
    "state": "Île-de-France",
    "state_code": "IDF",
    "country": "France",
    "country_code": "fr",
    "confidence": "0.4",
    "confidence_city_level": "1",
    "confidence_street_level": "0.4"
  },
  {
    "﻿original_N°": "75",
    "original_NOM": "ENS de chimie de Montpellier",
    "original_Tutelle": "MESR",
    "original_Nombre ETB actif": 1,
    "original_Adresse Siège Social ": "240 AVENUE DU PROFESSEUR EMILE JEANBRAU 34090 MONTPELLIER",
    "original_Code Postal": "34090",
    "original_Département": "34",
    "original_Echelon région": "Occitanie",
    "lat": 43.634507,
    "lon": 3.86567,
    "formatted": "240 Avenue Du Professeur Emile Jeanbrau, 34090 Montpellier, France",
    "name": null,
    "housenumber": "240",
    "street": "Avenue Du Professeur Emile Jeanbrau",
    "postcode": "34090",
    "district": "Montpellier",
    "suburb": null,
    "city": "Montpellier",
    "county": "Hérault",
    "state": "Occitanie",
    "state_code": "OCC",
    "country": "France",
    "country_code": "fr",
    "confidence": "0.625",
    "confidence_city_level": "1",
    "confidence_street_level": "0.625"
  },
  {
    "﻿original_N°": "76",
    "original_NOM": "ENS de Chimie de Paris",
    "original_Tutelle": "MESR",
    "original_Nombre ETB actif": 1,
    "original_Adresse Siège Social ": "11 RUE PIERRE ET MARIE CURIE 75005 PARIS",
    "original_Code Postal": "75005",
    "original_Département": "75",
    "original_Echelon région": "Ile-de-France",
    "lat": 48.8445045,
    "lon": 2.3440203,
    "formatted": "11/13 Rue Pierre et Marie Curie, 75005 Paris, France",
    "name": null,
    "housenumber": "nov-13",
    "street": "Rue Pierre et Marie Curie",
    "postcode": "75005",
    "district": "Paris",
    "suburb": "Paris 5e Arrondissement",
    "city": "Paris",
    "county": null,
    "state": "Île-de-France",
    "state_code": "IDF",
    "country": "France",
    "country_code": "fr",
    "confidence": "0.625",
    "confidence_city_level": "1",
    "confidence_street_level": "0.625"
  },
  {
    "﻿original_N°": "77",
    "original_NOM": "ENS de chimie de Rennes",
    "original_Tutelle": "MESR",
    "original_Nombre ETB actif": 1,
    "original_Adresse Siège Social ": "11 ALL DE BEAULIEU 35000 RENNES",
    "original_Code Postal": "35000",
    "original_Département": "35",
    "original_Echelon région": "Bretagne",
    "lat": 48.116948,
    "lon": -1.633802,
    "formatted": "3 Allée De Beaulieu, 35000 Rennes, France",
    "name": null,
    "housenumber": "3",
    "street": "Allée De Beaulieu",
    "postcode": "35000",
    "district": "Rennes",
    "suburb": null,
    "city": "Rennes",
    "county": "Ille-et-Vilaine",
    "state": "Bretagne",
    "state_code": "BRE",
    "country": "France",
    "country_code": "fr",
    "confidence": "0.4",
    "confidence_city_level": "1",
    "confidence_street_level": "0.4"
  },
  {
    "﻿original_N°": "78",
    "original_NOM": "ENS de l'Electronique et de ses Applications - Cergy",
    "original_Tutelle": "MESR",
    "original_Nombre ETB actif": 1,
    "original_Adresse Siège Social ": "6 AVENUE DU PONCEAU 95000 CERGY",
    "original_Code Postal": "95000",
    "original_Département": "95",
    "original_Echelon région": "Ile-de-France",
    "lat": 49.039506349999996,
    "lon": 2.072491058251916,
    "formatted": "École Nationale Supérieure de l'Électronique et de ses Applications, 6 Avenue du Ponceau, 95000 Cergy, France",
    "name": "École Nationale Supérieure de l'Électronique et de ses Applications",
    "housenumber": "6",
    "street": "Avenue du Ponceau",
    "postcode": "95000",
    "district": "Les Chênes d'Or",
    "suburb": "Grand Centre",
    "city": "Cergy",
    "county": "Val-d'Oise",
    "state": "Île-de-France",
    "state_code": "IDF",
    "country": "France",
    "country_code": "fr",
    "confidence": "0.5",
    "confidence_city_level": "1",
    "confidence_street_level": "0.5"
  },
  {
    "﻿original_N°": "79",
    "original_NOM": "ENS de Mécanique et d'Aéronautique - Poitiers",
    "original_Tutelle": "MESR",
    "original_Nombre ETB actif": null,
    "original_Adresse Siège Social ": null,
    "original_Code Postal": null,
    "original_Département": null,
    "original_Echelon région": "Nouvelle Aquitaine",
    "lat": null,
    "lon": null,
    "formatted": null,
    "name": null,
    "housenumber": null,
    "street": null,
    "postcode": null,
    "district": null,
    "suburb": null,
    "city": null,
    "county": null,
    "state": null,
    "state_code": null,
    "country": null,
    "country_code": null,
    "confidence": null,
    "confidence_city_level": null,
    "confidence_street_level": null
  },
  {
    "﻿original_N°": "80",
    "original_NOM": "ENS de Mécanique et des Microtechniques - Besançon",
    "original_Tutelle": "MESR",
    "original_Nombre ETB actif": 1,
    "original_Adresse Siège Social ": "26 RUE DE L'EPITAPHE 25000 BESANCON",
    "original_Code Postal": "25000",
    "original_Département": "25",
    "original_Echelon région": "Bourgogne-Franche Comté",
    "lat": 47.250532,
    "lon": 5.992414,
    "formatted": "26 Rue De L'epitaphe, 25000 Besançon, France",
    "name": null,
    "housenumber": "26",
    "street": "Rue De L'epitaphe",
    "postcode": "25000",
    "district": "Besançon",
    "suburb": null,
    "city": "Besançon",
    "county": "Doubs",
    "state": "Bourgogne-Franche-Comté",
    "state_code": "BFC",
    "country": "France",
    "country_code": "fr",
    "confidence": "0.5",
    "confidence_city_level": "1",
    "confidence_street_level": "0.5"
  },
  {
    "﻿original_N°": "81",
    "original_NOM": "ENS des Arts et Industries Textiles - Roubaix",
    "original_Tutelle": "MESR",
    "original_Nombre ETB actif": 1,
    "original_Adresse Siège Social ": "2 ALLEE LOUISE ET VICTOR CHAMPIER 59100 ROUBAIX",
    "original_Code Postal": "59100",
    "original_Département": "59",
    "original_Echelon région": "Hauts-de-France",
    "lat": 50.69416,
    "lon": 3.16798,
    "formatted": "2 Allee Louise Et Victor Champier, 59100 Roubaix, France",
    "name": null,
    "housenumber": "2",
    "street": "Allee Louise Et Victor Champier",
    "postcode": "59100",
    "district": "Roubaix",
    "suburb": null,
    "city": "Roubaix",
    "county": "Nord",
    "state": "Hauts-de-France",
    "state_code": "HDF",
    "country": "France",
    "country_code": "fr",
    "confidence": "0.625",
    "confidence_city_level": "1",
    "confidence_street_level": "0.625"
  },
  {
    "﻿original_N°": "82",
    "original_NOM": "ENS des Arts et Techniques du Théâtre - Lyon",
    "original_Tutelle": "MESR",
    "original_Nombre ETB actif": 1,
    "original_Adresse Siège Social ": "4 RUE SOEUR BOUVIER 69005 LYON",
    "original_Code Postal": "69005",
    "original_Département": "69",
    "original_Echelon région": "Auvergne-Rhône-Alpes",
    "lat": 45.753415,
    "lon": 4.812306,
    "formatted": "4 Rue Soeur Bouvier, 69005 Lyon, France",
    "name": null,
    "housenumber": "4",
    "street": "Rue Soeur Bouvier",
    "postcode": "69005",
    "district": "5e Arr.",
    "suburb": null,
    "city": "Lyon",
    "county": "Rhône",
    "state": "Auvergne-Rhône-Alpes",
    "state_code": "ARA",
    "country": "France",
    "country_code": "fr",
    "confidence": "0.5",
    "confidence_city_level": "1",
    "confidence_street_level": "0.5"
  },
  {
    "﻿original_N°": "83",
    "original_NOM": "ENS des Sciences de l'Information et des Bibliothèques - Villeurbanne",
    "original_Tutelle": "MESR",
    "original_Nombre ETB actif": 1,
    "original_Adresse Siège Social ": "17--21 17 BOULEVARD DU 11 NOVEMBRE 1918 69100 VILLEURBANNE",
    "original_Code Postal": "69100",
    "original_Département": "69",
    "original_Echelon région": "Auvergne-Rhône-Alpes",
    "lat": 45.77919,
    "lon": 4.874678,
    "formatted": "130 Boulevard Du 11 Novembre 1918, 69100 Villeurbanne, France",
    "name": null,
    "housenumber": "130",
    "street": "Boulevard Du 11 Novembre 1918",
    "postcode": "69100",
    "district": "Villeurbanne",
    "suburb": null,
    "city": "Villeurbanne",
    "county": "Rhône",
    "state": "Auvergne-Rhône-Alpes",
    "state_code": "ARA",
    "country": "France",
    "country_code": "fr",
    "confidence": "0.5",
    "confidence_city_level": "1",
    "confidence_street_level": "0.5"
  },
  {
    "﻿original_N°": "84",
    "original_NOM": "ENS d'Informatique pour l'Industrie et l'Entreprise - Evry",
    "original_Tutelle": "MESR",
    "original_Nombre ETB actif": 1,
    "original_Adresse Siège Social ": "1 PL DE LA RESISTANCE 91000 EVRY-COURCOURONNES",
    "original_Code Postal": "91000",
    "original_Département": "91",
    "original_Echelon région": "Ile-de-France",
    "lat": 48.626744,
    "lon": 2.432166,
    "formatted": "1 Square de la Résistance, 91000 Évry, France",
    "name": null,
    "housenumber": "1",
    "street": "Square de la Résistance",
    "postcode": "91000",
    "district": "Évry",
    "suburb": null,
    "city": "Évry",
    "county": "Essonne",
    "state": "Île-De-France",
    "state_code": "IDF",
    "country": "France",
    "country_code": "fr",
    "confidence": "0.2250423",
    "confidence_city_level": "1",
    "confidence_street_level": "0.2250423"
  },
  {
    "﻿original_N°": "85",
    "original_NOM": "ENS d'Ingénieurs Caen",
    "original_Tutelle": "MESR",
    "original_Nombre ETB actif": 1,
    "original_Adresse Siège Social ": "6 BOULEVARD MARECHAL JUIN 14000 CAEN",
    "original_Code Postal": "14000",
    "original_Département": "14",
    "original_Echelon région": "Normandie",
    "lat": 49.210465,
    "lon": -0.367201,
    "formatted": "6 bis Boulevard Maréchal Juin, 14000 Caen, France",
    "name": null,
    "housenumber": "6 bis",
    "street": "Boulevard Maréchal Juin",
    "postcode": "14000",
    "district": "Mont-Coco",
    "suburb": null,
    "city": "Caen",
    "county": "Calvados",
    "state": "Normandie",
    "state_code": "NOR",
    "country": "France",
    "country_code": "fr",
    "confidence": "0.35720999999999997",
    "confidence_city_level": "1",
    "confidence_street_level": "0.35720999999999997"
  },
  {
    "﻿original_N°": "86",
    "original_NOM": "ENS Lyon",
    "original_Tutelle": "MESR",
    "original_Nombre ETB actif": 1,
    "original_Adresse Siège Social ": "15 PARVIS RENE DESCARTES 69007 LYON",
    "original_Code Postal": "69007",
    "original_Département": "69",
    "original_Echelon région": "Auvergne-Rhône-Alpes",
    "lat": 45.7330653,
    "lon": 4.8340167,
    "formatted": "15 Parvis René Descartes, 69007 Lyon, France",
    "name": null,
    "housenumber": "15",
    "street": "Parvis René Descartes",
    "postcode": "69007",
    "district": "7e Arr.",
    "suburb": "Gerland",
    "city": "Lyon",
    "county": "Métropole de Lyon",
    "state": "Auvergne-Rhône-Alpes",
    "state_code": "ARA",
    "country": "France",
    "country_code": "fr",
    "confidence": "0.25004699999999996",
    "confidence_city_level": "1",
    "confidence_street_level": "0.25004699999999996"
  },
  {
    "﻿original_N°": "87",
    "original_NOM": "ENS Paris Saclay",
    "original_Tutelle": "MESR",
    "original_Nombre ETB actif": 1,
    "original_Adresse Siège Social ": "4 AVENUE DES SCIENCES 91190 GIF-SUR-YVETTE",
    "original_Code Postal": "91190",
    "original_Département": "91",
    "original_Echelon région": "Ile-de-France",
    "lat": 48.7123878,
    "lon": 2.163931849061624,
    "formatted": "Bâtiment Sud-Ouest de l'École Normale Supérieure Paris-Saclay, 4 Avenue des Sciences, 91190 Gif-sur-Yvette, France",
    "name": "Bâtiment Sud-Ouest de l'École Normale Supérieure Paris-Saclay",
    "housenumber": "4",
    "street": "Avenue des Sciences",
    "postcode": "91190",
    "district": null,
    "suburb": "Campus Urbain de Paris-Saclay",
    "city": "Gif-sur-Yvette",
    "county": "Essonne",
    "state": "Île-de-France",
    "state_code": "IDF",
    "country": "France",
    "country_code": "fr",
    "confidence": "0.375",
    "confidence_city_level": "1",
    "confidence_street_level": "0.375"
  },
  {
    "﻿original_N°": "88",
    "original_NOM": "ENS Rennes",
    "original_Tutelle": "MESR",
    "original_Nombre ETB actif": 1,
    "original_Adresse Siège Social ": "CAMPUS DE KER LANN AVENUE ROBERT SCHUMANN 35170 BRUZ",
    "original_Code Postal": "35170",
    "original_Département": "35",
    "original_Echelon région": "Bretagne",
    "lat": 48.044516,
    "lon": -1.745392,
    "formatted": "12 Avenue Robert Schumann, 35170 Bruz, France",
    "name": null,
    "housenumber": "12",
    "street": "Avenue Robert Schumann",
    "postcode": "35170",
    "district": "Bruz",
    "suburb": null,
    "city": "Bruz",
    "county": "Ille-et-Vilaine",
    "state": "Bretagne",
    "state_code": "BRE",
    "country": "France",
    "country_code": "fr",
    "confidence": "0.33333333333333337",
    "confidence_city_level": "1",
    "confidence_street_level": "0.33333333333333337"
  },
  {
    "﻿original_N°": "89",
    "original_NOM": "France Education International",
    "original_Tutelle": "MENJ",
    "original_Nombre ETB actif": 1,
    "original_Adresse Siège Social ": "1 AVENUE LEON JOURNAULT 92310 SEVRES",
    "original_Code Postal": "92310",
    "original_Département": "92",
    "original_Echelon région": "Ile-de-France",
    "lat": 48.824328,
    "lon": 2.216403,
    "formatted": "1 Avenue Léon Journault, 92310 Sèvres, France",
    "name": null,
    "housenumber": "1",
    "street": "Avenue Léon Journault",
    "postcode": "92310",
    "district": "Sèvres",
    "suburb": null,
    "city": "Sèvres",
    "county": "Hauts-de-Seine",
    "state": "Île-De-France",
    "state_code": "IDF",
    "country": "France",
    "country_code": "fr",
    "confidence": "0.35720999999999997",
    "confidence_city_level": "1",
    "confidence_street_level": "0.35720999999999997"
  },
  {
    "﻿original_N°": "90",
    "original_NOM": "Haut Conseil de l'Evaluation de la Recherche et de l'Enseignement Supérieur - Paris",
    "original_Tutelle": null,
    "original_Nombre ETB actif": 1,
    "original_Adresse Siège Social ": "2-8 2 RUE ALBERT EINSTEIN 75013 PARIS",
    "original_Code Postal": "75013",
    "original_Département": "75",
    "original_Echelon région": "Ile-de-France",
    "lat": 48.827456,
    "lon": 2.381157,
    "formatted": "23u Rue Albert Einstein, 75013 Paris, France",
    "name": null,
    "housenumber": "23u",
    "street": "Rue Albert Einstein",
    "postcode": "75013",
    "district": "Paris",
    "suburb": "Gare",
    "city": "Paris",
    "county": "Paris",
    "state": "Île-De-France",
    "state_code": "IDF",
    "country": "France",
    "country_code": "fr",
    "confidence": "0.375",
    "confidence_city_level": "1",
    "confidence_street_level": "0.375"
  },
  {
    "﻿original_N°": "91",
    "original_NOM": "Hautes Ecoles Sorbonne Arts et Métiers Université - Paris",
    "original_Tutelle": "MESR",
    "original_Nombre ETB actif": 1,
    "original_Adresse Siège Social ": "15 RUE SOUFFLOT 75005 PARIS",
    "original_Code Postal": "75005",
    "original_Département": "75",
    "original_Echelon région": "Ile-de-France",
    "lat": 48.8469194,
    "lon": 2.3421448,
    "formatted": "15 Rue Soufflot, 75005 Paris, France",
    "name": null,
    "housenumber": "15",
    "street": "Rue Soufflot",
    "postcode": "75005",
    "district": "Paris",
    "suburb": "Paris 5e Arrondissement",
    "city": "Paris",
    "county": null,
    "state": "Île-de-France",
    "state_code": "IDF",
    "country": "France",
    "country_code": "fr",
    "confidence": "0.4",
    "confidence_city_level": "1",
    "confidence_street_level": "0.4"
  },
  {
    "﻿original_N°": "92",
    "original_NOM": "IEP Aix en Provence",
    "original_Tutelle": "MESR",
    "original_Nombre ETB actif": 1,
    "original_Adresse Siège Social ": "25 RUE GASTON DE SAPORTA 13100 AIX-EN-PROVENCE",
    "original_Code Postal": "13100",
    "original_Département": "13",
    "original_Echelon région": "Provence-Alpes-Côte d'Azur",
    "lat": 43.530273,
    "lon": 5.44773,
    "formatted": "2 Rue Gaston De Saporta, 13100 Aix-en-Provence, France",
    "name": null,
    "housenumber": "2",
    "street": "Rue Gaston De Saporta",
    "postcode": "13100",
    "district": "Aix-en-Provence",
    "suburb": null,
    "city": "Aix-en-Provence",
    "county": "Bouches-du-Rhône",
    "state": "Provence-Alpes-Côte D'Azur",
    "state_code": "PAC",
    "country": "France",
    "country_code": "fr",
    "confidence": "0.4444444444444444",
    "confidence_city_level": "1",
    "confidence_street_level": "0.4444444444444444"
  },
  {
    "﻿original_N°": "93",
    "original_NOM": "IEP Bordeaux",
    "original_Tutelle": "MESR",
    "original_Nombre ETB actif": 2,
    "original_Adresse Siège Social ": "BORDEAUX, CAMPUS UNIVERSITAIRE 11 ALLEE AUSONE 33600 PESSAC",
    "original_Code Postal": "33600",
    "original_Département": "33",
    "original_Echelon région": "Nouvelle Aquitaine",
    "lat": 44.798385,
    "lon": -0.615237,
    "formatted": "11 Allée Ausone, 33600 Pessac, France",
    "name": null,
    "housenumber": "11",
    "street": "Allée Ausone",
    "postcode": "33600",
    "district": "Pessac",
    "suburb": null,
    "city": "Pessac",
    "county": "Gironde",
    "state": "Nouvelle-Aquitaine",
    "state_code": "NAQ",
    "country": "France",
    "country_code": "fr",
    "confidence": "0",
    "confidence_city_level": "1",
    "confidence_street_level": null
  },
  {
    "﻿original_N°": "94",
    "original_NOM": "IEP Lyon",
    "original_Tutelle": "MESR",
    "original_Nombre ETB actif": 2,
    "original_Adresse Siège Social ": "14 AVENUE BERTHELOT 69007 LYON",
    "original_Code Postal": "69007",
    "original_Département": "69",
    "original_Echelon région": "Auvergne-Rhône-Alpes",
    "lat": 45.7470377,
    "lon": 4.8357977,
    "formatted": "14 Avenue Berthelot, 69007 Lyon, France",
    "name": null,
    "housenumber": "14",
    "street": "Avenue Berthelot",
    "postcode": "69007",
    "district": "7e Arr.",
    "suburb": "Lyon 7e Arrondissement",
    "city": "Lyon",
    "county": "Métropole de Lyon",
    "state": "Auvergne-Rhône-Alpes",
    "state_code": "ARA",
    "country": "France",
    "country_code": "fr",
    "confidence": "0.4",
    "confidence_city_level": "1",
    "confidence_street_level": "0.4"
  },
  {
    "﻿original_N°": "95",
    "original_NOM": "IEP Rennes",
    "original_Tutelle": "MESR",
    "original_Nombre ETB actif": 2,
    "original_Adresse Siège Social ": "104 BOULEVARD DE LA DUCHESSE ANNE 35000 RENNES",
    "original_Code Postal": "35000",
    "original_Département": "35",
    "original_Echelon région": "Bretagne",
    "lat": 48.112669,
    "lon": -1.666294,
    "formatted": "1 Boulevard De La Duchesse Anne, 35000 Rennes, France",
    "name": null,
    "housenumber": "1",
    "street": "Boulevard De La Duchesse Anne",
    "postcode": "35000",
    "district": "Rennes",
    "suburb": null,
    "city": "Rennes",
    "county": "Ille-et-Vilaine",
    "state": "Bretagne",
    "state_code": "BRE",
    "country": "France",
    "country_code": "fr",
    "confidence": "0.625",
    "confidence_city_level": "1",
    "confidence_street_level": "0.625"
  },
  {
    "﻿original_N°": "96",
    "original_NOM": "IEP Toulouse",
    "original_Tutelle": "MESR",
    "original_Nombre ETB actif": 1,
    "original_Adresse Siège Social ": "21 ALLEE DE BRIENNE 31000 TOULOUSE",
    "original_Code Postal": "31000",
    "original_Département": "31",
    "original_Echelon région": "Occitanie",
    "lat": 43.6053259,
    "lon": 1.4313625923507356,
    "formatted": "Manufacture des tabacs, 21 Allée de Brienne, 31000 Toulouse, France",
    "name": "Manufacture des tabacs",
    "housenumber": "21",
    "street": "Allée de Brienne",
    "postcode": "31000",
    "district": "Amidonniers - Caffarelli",
    "suburb": "Toulouse Centre",
    "city": "Toulouse",
    "county": "Haute-Garonne",
    "state": "Occitanie",
    "state_code": "OCC",
    "country": "France",
    "country_code": "fr",
    "confidence": "0.33333333333333337",
    "confidence_city_level": "1",
    "confidence_street_level": "0.33333333333333337"
  },
  {
    "﻿original_N°": "97",
    "original_NOM": "Institut d'Administration des Entreprises - Paris",
    "original_Tutelle": "MESR",
    "original_Nombre ETB actif": 1,
    "original_Adresse Siège Social ": "IAE, 8 RUE DE LA CROIX JARRY 75013 PARIS",
    "original_Code Postal": "75013",
    "original_Département": "75",
    "original_Echelon région": "Ile-de-France",
    "lat": 48.827297,
    "lon": 2.3818,
    "formatted": "8 Rue De La Croix Jarry, 75013 Paris, France",
    "name": null,
    "housenumber": "8",
    "street": "Rue De La Croix Jarry",
    "postcode": "75013",
    "district": "Paris",
    "suburb": "Gare",
    "city": "Paris",
    "county": "Paris",
    "state": "Île-De-France",
    "state_code": "IDF",
    "country": "France",
    "country_code": "fr",
    "confidence": "0.5555555555555556",
    "confidence_city_level": "1",
    "confidence_street_level": "0.5555555555555556"
  },
  {
    "﻿original_N°": "98",
    "original_NOM": "Institut de Physique du Globe de Paris",
    "original_Tutelle": "MESR",
    "original_Nombre ETB actif": 6,
    "original_Adresse Siège Social ": "1 RUE JUSSIEU 75005 PARIS",
    "original_Code Postal": "75005",
    "original_Département": "75",
    "original_Echelon région": "Ile-de-France",
    "lat": 48.84477575,
    "lon": 2.3561337137499914,
    "formatted": "Institut de Physique du Globe de Paris - Université de Paris, 1 Rue Jussieu, 75005 Paris, France",
    "name": "Institut de Physique du Globe de Paris - Université de Paris",
    "housenumber": "1",
    "street": "Rue Jussieu",
    "postcode": "75005",
    "district": "Paris",
    "suburb": "Paris 5e Arrondissement",
    "city": "Paris",
    "county": null,
    "state": "Île-de-France",
    "state_code": "IDF",
    "country": "France",
    "country_code": "fr",
    "confidence": "0.4",
    "confidence_city_level": "1",
    "confidence_street_level": "0.4"
  },
  {
    "﻿original_N°": "99",
    "original_NOM": "Institut de Recherche pour le Développement - Marseille",
    "original_Tutelle": "MESR",
    "original_Nombre ETB actif": 11,
    "original_Adresse Siège Social ": "IMMEUBLE LE SEXTANT 44 BOULEVARD DE DUNKERQUE 13002 MARSEILLE",
    "original_Code Postal": "13002",
    "original_Département": "13",
    "original_Echelon région": "Provence-Alpes-Côte d'Azur",
    "lat": 43.309632,
    "lon": 5.368685,
    "formatted": "44 Boulevard De Dunkerque, 13002 Marseille, France",
    "name": null,
    "housenumber": "44",
    "street": "Boulevard De Dunkerque",
    "postcode": "13002",
    "district": "2e Arr.",
    "suburb": null,
    "city": "Marseille",
    "county": "Bouches-du-Rhône",
    "state": "Provence-Alpes-Côte D'Azur",
    "state_code": "PAC",
    "country": "France",
    "country_code": "fr",
    "confidence": "0.33333333333333337",
    "confidence_city_level": "1",
    "confidence_street_level": "0.33333333333333337"
  },
  {
    "﻿original_N°": "100",
    "original_NOM": "Institut National de la Santé et de la Recherche Médicale - Paris",
    "original_Tutelle": "MESR",
    "original_Nombre ETB actif": 263,
    "original_Adresse Siège Social ": "101 RUE DE TOLBIAC 75013 PARIS",
    "original_Code Postal": "75013",
    "original_Département": "75",
    "original_Echelon région": "Ile-de-France",
    "lat": 48.8266111,
    "lon": 2.3652703,
    "formatted": "101 Rue de Tolbiac, 75013 Paris, France",
    "name": null,
    "housenumber": "101",
    "street": "Rue de Tolbiac",
    "postcode": "75013",
    "district": "Paris",
    "suburb": "Paris 13e Arrondissement",
    "city": "Paris",
    "county": null,
    "state": "Île-de-France",
    "state_code": "IDF",
    "country": "France",
    "country_code": "fr",
    "confidence": "0.5",
    "confidence_city_level": "1",
    "confidence_street_level": "0.5"
  },
  {
    "﻿original_N°": "101",
    "original_NOM": "Institut National de Recherche en Informatique et en Automatique - Rocquencourt",
    "original_Tutelle": "MESR",
    "original_Nombre ETB actif": 10,
    "original_Adresse Siège Social ": "INRIA SIEGE, DOM DE VOLUCEAU 78150 LE CHESNAY-ROCQUENCOURT",
    "original_Code Postal": "78150",
    "original_Département": "78",
    "original_Echelon région": "Ile-de-France",
    "lat": 48.832268137,
    "lon": 2.120661452,
    "formatted": "78150 IDF, France",
    "name": null,
    "housenumber": null,
    "street": null,
    "postcode": "78150",
    "district": null,
    "suburb": null,
    "city": null,
    "county": null,
    "state": "Île-de-France",
    "state_code": "IDF",
    "country": "France",
    "country_code": "fr",
    "confidence": "0",
    "confidence_city_level": "1",
    "confidence_street_level": null
  },
  {
    "﻿original_N°": "102",
    "original_NOM": "Institut National de Recherche pour l'Agriculture, l'alimentation et l'Environnement - Paris",
    "original_Tutelle": "MESR",
    "original_Nombre ETB actif": 226,
    "original_Adresse Siège Social ": "INRAE CENTRE-SIEGE PARIS 07, 147 RUE DE L'UNIVERSITE 75007 PARIS",
    "original_Code Postal": "75007",
    "original_Département": "75",
    "original_Echelon région": "Ile-de-France",
    "lat": 48.861065,
    "lon": 2.305919,
    "formatted": "147 Rue De l'Université, 75007 Paris, France",
    "name": null,
    "housenumber": "147",
    "street": "Rue De l'Université",
    "postcode": "75007",
    "district": "Paris",
    "suburb": "Gros Caillou",
    "city": "Paris",
    "county": "Paris",
    "state": "Île-De-France",
    "state_code": "IDF",
    "country": "France",
    "country_code": "fr",
    "confidence": "0.035450825752502996",
    "confidence_city_level": "1",
    "confidence_street_level": "0.035450825752502996"
  },
  {
    "﻿original_N°": "103",
    "original_NOM": "Institut National d'enseignement supérieur et de Recherche pour l'éducation Inclusive - Suresnes",
    "original_Tutelle": "MESR",
    "original_Nombre ETB actif": 1,
    "original_Adresse Siège Social ": "58 A 60 58 AVENUE DES LANDES 92150 SURESNES",
    "original_Code Postal": "92150",
    "original_Département": "92",
    "original_Echelon région": "Ile-de-France",
    "lat": 48.868398,
    "lon": 2.213082,
    "formatted": "58 Avenue Des Landes, 92150 Suresnes, France",
    "name": null,
    "housenumber": "58",
    "street": "Avenue Des Landes",
    "postcode": "92150",
    "district": "Suresnes",
    "suburb": null,
    "city": "Suresnes",
    "county": "Hauts-de-Seine",
    "state": "Île-De-France",
    "state_code": "IDF",
    "country": "France",
    "country_code": "fr",
    "confidence": "0.33333333333333337",
    "confidence_city_level": "1",
    "confidence_street_level": "0.33333333333333337"
  },
  {
    "﻿original_N°": "104",
    "original_NOM": "Institut National des Langues et Civilisations Orientales - Paris",
    "original_Tutelle": "MESR",
    "original_Nombre ETB actif": 6,
    "original_Adresse Siège Social ": "65 RUE DES GRANDS MOULINS 75013 PARIS",
    "original_Code Postal": "75013",
    "original_Département": "75",
    "original_Echelon région": "Ile-de-France",
    "lat": 48.827088,
    "lon": 2.3756326,
    "formatted": "Bibliothèque universitaire des langues et civilisations (BULAC), 65 Rue des Grands Moulins, 75013 Paris, France",
    "name": "Bibliothèque universitaire des langues et civilisations (BULAC)",
    "housenumber": "65",
    "street": "Rue des Grands Moulins",
    "postcode": "75013",
    "district": "Paris",
    "suburb": "Paris 13e Arrondissement",
    "city": "Paris",
    "county": null,
    "state": "Île-de-France",
    "state_code": "IDF",
    "country": "France",
    "country_code": "fr",
    "confidence": "0.5714285714285714",
    "confidence_city_level": "1",
    "confidence_street_level": "0.5714285714285714"
  },
  {
    "﻿original_N°": "105",
    "original_NOM": "Institut National des Sciences Appliquées de Lyon",
    "original_Tutelle": "MESR",
    "original_Nombre ETB actif": 2,
    "original_Adresse Siège Social ": "INSTITUT NATIONAL DES SCIENCES APPLIQUEES DE LYON, 20 AVENUE ALBERT EINSTEIN 69100 VILLEURBANNE",
    "original_Code Postal": "69100",
    "original_Département": "69",
    "original_Echelon région": "Auvergne-Rhône-Alpes",
    "lat": 45.7830905,
    "lon": 4.8759893530497695,
    "formatted": "Institut National des Sciences Appliquées de Lyon, 20 Avenue Albert Einstein, 69100 Villeurbanne, France",
    "name": "Institut National des Sciences Appliquées de Lyon",
    "housenumber": "20",
    "street": "Avenue Albert Einstein",
    "postcode": "69100",
    "district": null,
    "suburb": "Croix-Luizet",
    "city": "Villeurbanne",
    "county": "Métropole de Lyon",
    "state": "Auvergne-Rhône-Alpes",
    "state_code": "ARA",
    "country": "France",
    "country_code": "fr",
    "confidence": "0.23076923076923073",
    "confidence_city_level": "1",
    "confidence_street_level": "0.23076923076923073"
  },
  {
    "﻿original_N°": "106",
    "original_NOM": "Institut National des Sciences Appliquées de Rouen Normandie",
    "original_Tutelle": "MESR",
    "original_Nombre ETB actif": 1,
    "original_Adresse Siège Social ": "AVENUE DE L'UNIVERSITE 76800 SAINT-ETIENNE-DU-ROUVRAY",
    "original_Code Postal": "76800",
    "original_Département": "76",
    "original_Echelon région": "Normandie",
    "lat": 49.3854309,
    "lon": 1.0704367,
    "formatted": "Avenue de l'Université, 76800 Saint-Étienne-du-Rouvray, France",
    "name": "Avenue de l'Université",
    "housenumber": null,
    "street": "Avenue de l'Université",
    "postcode": "76800",
    "district": null,
    "suburb": null,
    "city": "Saint-Étienne-du-Rouvray",
    "county": "Seine-Maritime",
    "state": "Normandie",
    "state_code": "NOR",
    "country": "France",
    "country_code": "fr",
    "confidence": "0.20253807",
    "confidence_city_level": "1",
    "confidence_street_level": "0.20253807"
  },
  {
    "﻿original_N°": "107",
    "original_NOM": "Institut National des Sciences Appliquées de Strasbourg",
    "original_Tutelle": "MESR",
    "original_Nombre ETB actif": 1,
    "original_Adresse Siège Social ": "24 BOULEVARD DE LA VICTOIRE 67000 STRASBOURG",
    "original_Code Postal": "67000",
    "original_Département": "67",
    "original_Echelon région": "Grand Est",
    "lat": 48.583613,
    "lon": 7.759761,
    "formatted": "10 Boulevard de la Victoire, 67000 Strasbourg, France",
    "name": null,
    "housenumber": "10",
    "street": "Boulevard de la Victoire",
    "postcode": "67000",
    "district": "Strasbourg",
    "suburb": null,
    "city": "Strasbourg",
    "county": "Bas-Rhin",
    "state": "Grand Est",
    "state_code": "GES",
    "country": "France",
    "country_code": "fr",
    "confidence": "0.5714285714285714",
    "confidence_city_level": "1",
    "confidence_street_level": "0.5714285714285714"
  },
  {
    "﻿original_N°": "108",
    "original_NOM": "Institut National des Sciences Appliquées de Toulouse",
    "original_Tutelle": "MESR",
    "original_Nombre ETB actif": 1,
    "original_Adresse Siège Social ": "INSA, 135 AVENUE DE RANGUEIL 31400 TOULOUSE",
    "original_Code Postal": "31400",
    "original_Département": "31",
    "original_Echelon région": "Occitanie",
    "lat": 43.5695982,
    "lon": 1.4684401944506185,
    "formatted": "Institut national des sciences appliquées de Toulouse, 135 Avenue de Rangueil, 31400 Toulouse, France",
    "name": "Institut national des sciences appliquées de Toulouse",
    "housenumber": "135",
    "street": "Avenue de Rangueil",
    "postcode": "31400",
    "district": "Rangueil, Sauzelong, Pech David, Pouvourville",
    "suburb": "Toulouse Sud-Est",
    "city": "Toulouse",
    "county": "Haute-Garonne",
    "state": "Occitanie",
    "state_code": "OCC",
    "country": "France",
    "country_code": "fr",
    "confidence": "0.4285714285714286",
    "confidence_city_level": "1",
    "confidence_street_level": "0.4285714285714286"
  },
  {
    "﻿original_N°": "109",
    "original_NOM": "Institut National des Sciences Appliquées du Centre Val de loire - Blois",
    "original_Tutelle": "MESR",
    "original_Nombre ETB actif": 3,
    "original_Adresse Siège Social ": "CAMPUS BOURGES - TECHNOPOLE LAHITOLLE 88 BOULEVARD LAHITOLLE 18000 BOURGES",
    "original_Code Postal": "18000",
    "original_Département": "18",
    "original_Echelon région": "Centre Val-de-Loir",
    "lat": 47.082534,
    "lon": 2.415385,
    "formatted": "88 Boulevard Lahitolle, 18000 Bourges, France",
    "name": null,
    "housenumber": "88",
    "street": "Boulevard Lahitolle",
    "postcode": "18000",
    "district": "Bourges",
    "suburb": "Bourges",
    "city": "Bourges",
    "county": "Cher",
    "state": "Centre-Val de Loire",
    "state_code": "CVL",
    "country": "France",
    "country_code": "fr",
    "confidence": "0.33333333333333337",
    "confidence_city_level": "1",
    "confidence_street_level": "0.33333333333333337"
  },
  {
    "﻿original_N°": "110",
    "original_NOM": "Institut National d'Etudes Démographiques - Aubervilliers",
    "original_Tutelle": "MESR",
    "original_Nombre ETB actif": 1,
    "original_Adresse Siège Social ": "9 COURS DES HUMANITES 93300 AUBERVILLIERS",
    "original_Code Postal": "93300",
    "original_Département": "93",
    "original_Echelon région": "Ile-de-France",
    "lat": 48.912754,
    "lon": 2.367027,
    "formatted": "16 Cours Des Humanités, 93300 Aubervilliers, France",
    "name": null,
    "housenumber": "16",
    "street": "Cours Des Humanités",
    "postcode": "93300",
    "district": "Aubervilliers",
    "suburb": null,
    "city": "Aubervilliers",
    "county": "Seine-Saint-Denis",
    "state": "Île-De-France",
    "state_code": "IDF",
    "country": "France",
    "country_code": "fr",
    "confidence": "0.35720999999999997",
    "confidence_city_level": "1",
    "confidence_street_level": "0.35720999999999997"
  },
  {
    "﻿original_N°": "111",
    "original_NOM": "Institut National du Sport, de l'Expertise et de la Performance - Paris",
    "original_Tutelle": "MSJOP",
    "original_Nombre ETB actif": 1,
    "original_Adresse Siège Social ": "11 AVENUE DU TREMBLAY 75012 PARIS",
    "original_Code Postal": "75012",
    "original_Département": "75",
    "original_Echelon région": "Ile-de-France",
    "lat": 48.8321509,
    "lon": 2.452534029513446,
    "formatted": "Institut National du Sport, de l'Expertise et de la Performance, 11 Avenue du Tremblay, 75012 Paris, France",
    "name": "Institut National du Sport, de l'Expertise et de la Performance",
    "housenumber": "11",
    "street": "Avenue du Tremblay",
    "postcode": "75012",
    "district": "Paris",
    "suburb": "Paris 12e Arrondissement",
    "city": "Paris",
    "county": null,
    "state": "Île-de-France",
    "state_code": "IDF",
    "country": "France",
    "country_code": "fr",
    "confidence": "0.5",
    "confidence_city_level": "1",
    "confidence_street_level": "0.5"
  },
  {
    "﻿original_N°": "112",
    "original_NOM": "Institut National Polytechnique Bordeaux",
    "original_Tutelle": "MESR",
    "original_Nombre ETB actif": 7,
    "original_Adresse Siège Social ": "1 AVENUE DU DR ALBERT SCHWEITZER 33400 TALENCE",
    "original_Code Postal": "33400",
    "original_Département": "33",
    "original_Echelon région": "Nouvelle Aquitaine",
    "lat": 44.805697,
    "lon": -0.608126,
    "formatted": "3 Avenue Du Docteur Albert Schweitzer, 33600 Pessac, France",
    "name": null,
    "housenumber": "3",
    "street": "Avenue Du Docteur Albert Schweitzer",
    "postcode": "33600",
    "district": "Pessac",
    "suburb": null,
    "city": "Pessac",
    "county": "Gironde",
    "state": "Nouvelle-Aquitaine",
    "state_code": "NAQ",
    "country": "France",
    "country_code": "fr",
    "confidence": "0.049999999999999996",
    "confidence_city_level": "0.3",
    "confidence_street_level": "0.049999999999999996"
  },
  {
    "﻿original_N°": "113",
    "original_NOM": "Institut National Polytechnique Clermont Auvergne - Aubière",
    "original_Tutelle": "MESR",
    "original_Nombre ETB actif": 4,
    "original_Adresse Siège Social ": "CAMPUS DES CEZEAUX 27 RUE ROCHE-GENES 63170 AUBIERE",
    "original_Code Postal": "63170",
    "original_Département": "63",
    "original_Echelon région": "Auvergne-Rhône-Alpes",
    "lat": 45.757358,
    "lon": 3.111912,
    "formatted": "27 Rue Roche-Genès, 63170 Aubière, France",
    "name": null,
    "housenumber": "27",
    "street": "Rue Roche-Genès",
    "postcode": "63170",
    "district": "Aubière",
    "suburb": null,
    "city": "Aubière",
    "county": "Puy-de-Dôme",
    "state": "Auvergne-Rhône-Alpes",
    "state_code": "ARA",
    "country": "France",
    "country_code": "fr",
    "confidence": "0.12759898409999998",
    "confidence_city_level": "1",
    "confidence_street_level": "0.12759898409999998"
  },
  {
    "﻿original_N°": "114",
    "original_NOM": "Institut National Polytechnique Toulouse",
    "original_Tutelle": "MESR",
    "original_Nombre ETB actif": 7,
    "original_Adresse Siège Social ": "6 ALLEE EMILE MONSO 31400 TOULOUSE",
    "original_Code Postal": "31400",
    "original_Département": "31",
    "original_Echelon région": "Occitanie",
    "lat": 43.5562141,
    "lon": 1.5034224,
    "formatted": "6 Allée Émile Monso, 31400 Toulouse, France",
    "name": null,
    "housenumber": "6",
    "street": "Allée Émile Monso",
    "postcode": "31400",
    "district": "Pont des Demoiselles, Montaudran, La Terrasse",
    "suburb": "Toulouse Sud-Est",
    "city": "Toulouse",
    "county": "Haute-Garonne",
    "state": "Occitanie",
    "state_code": "OCC",
    "country": "France",
    "country_code": "fr",
    "confidence": "0.35720999999999997",
    "confidence_city_level": "1",
    "confidence_street_level": "0.35720999999999997"
  },
  {
    "﻿original_N°": "115",
    "original_NOM": "Institut National U Champollion - Albi",
    "original_Tutelle": "MESR",
    "original_Nombre ETB actif": 8,
    "original_Adresse Siège Social ": "JF CHAMPOLLION, PLACE DE VERDUN 81000 ALBI",
    "original_Code Postal": "81000",
    "original_Département": "81",
    "original_Echelon région": "Occitanie",
    "lat": 43.920085,
    "lon": 2.139219,
    "formatted": "3 Place De Verdun, 81000 Albi, France",
    "name": null,
    "housenumber": "3",
    "street": "Place De Verdun",
    "postcode": "81000",
    "district": "Albi",
    "suburb": null,
    "city": "Albi",
    "county": "Tarn",
    "state": "Occitanie",
    "state_code": "OCC",
    "country": "France",
    "country_code": "fr",
    "confidence": "0.4285714285714286",
    "confidence_city_level": "1",
    "confidence_street_level": "0.4285714285714286"
  },
  {
    "﻿original_N°": "116",
    "original_NOM": "Institut Polytechnique Grenoble",
    "original_Tutelle": "MESR",
    "original_Nombre ETB actif": 18,
    "original_Adresse Siège Social ": "INP GRENOBLE, 46 AVENUE FELIX VIALLET 38000 GRENOBLE",
    "original_Code Postal": "38000",
    "original_Département": "38",
    "original_Echelon région": "Auvergne-Rhône-Alpes",
    "lat": 45.190684,
    "lon": 5.717404,
    "formatted": "46 Avenue Félix Viallet, 38000 Grenoble, France",
    "name": null,
    "housenumber": "46",
    "street": "Avenue Félix Viallet",
    "postcode": "38000",
    "district": "Grenoble",
    "suburb": null,
    "city": "Grenoble",
    "county": "Isère",
    "state": "Auvergne-Rhône-Alpes",
    "state_code": "ARA",
    "country": "France",
    "country_code": "fr",
    "confidence": "0.09924365429999998",
    "confidence_city_level": "1",
    "confidence_street_level": "0.09924365429999998"
  },
  {
    "﻿original_N°": "117",
    "original_NOM": "Institut Supérieur de Mécanique de Paris",
    "original_Tutelle": "MESR",
    "original_Nombre ETB actif": 2,
    "original_Adresse Siège Social ": "3 RUE FERNAND HAINAUT 93400 SAINT-OUEN-SUR-SEINE",
    "original_Code Postal": "93400",
    "original_Département": "93",
    "original_Echelon région": "Ile-de-France",
    "lat": 48.919429,
    "lon": 2.332232,
    "formatted": "7 Rue Fernand Hainaut, 93400 St.-Ouen, France",
    "name": null,
    "housenumber": "7",
    "street": "Rue Fernand Hainaut",
    "postcode": "93400",
    "district": "Saint-Ouen",
    "suburb": null,
    "city": "St.-Ouen",
    "county": "Seine-Saint-Denis",
    "state": "Île-De-France",
    "state_code": "IDF",
    "country": "France",
    "country_code": "fr",
    "confidence": "0.33333333333333337",
    "confidence_city_level": "1",
    "confidence_street_level": "0.33333333333333337"
  },
  {
    "﻿original_N°": "118",
    "original_NOM": "ISAE - ENSMA - Poitiers",
    "original_Tutelle": "MESR",
    "original_Nombre ETB actif": 1,
    "original_Adresse Siège Social ": "ECOLE NAT SUP MECANIQUE AEROTECHNIQUE, TELEPORT 2 1 AVENUE CLEMENT ADER 86360 CHASSENEUIL-DU-POITOU",
    "original_Code Postal": "86360",
    "original_Département": "86",
    "original_Echelon région": "Nouvelle Aquitaine",
    "lat": 46.6609877,
    "lon": 0.36203894864027586,
    "formatted": "ISAE école nationale supérieure de mécanique et d'aérotechnique, 1 Avenue Clément Ader, 86961 Chasseneuil-du-Poitou, France",
    "name": "ISAE école nationale supérieure de mécanique et d'aérotechnique",
    "housenumber": "1",
    "street": "Avenue Clément Ader",
    "postcode": "86961",
    "district": null,
    "suburb": "Technopole du Futuroscope",
    "city": "Chasseneuil-du-Poitou",
    "county": "Vienne",
    "state": "Nouvelle-Aquitaine",
    "state_code": "NAQ",
    "country": "France",
    "country_code": "fr",
    "confidence": "0",
    "confidence_city_level": "0.3",
    "confidence_street_level": null
  },
  {
    "﻿original_N°": "119",
    "original_NOM": "Musée National du Sport - Nice",
    "original_Tutelle": "MSJOP",
    "original_Nombre ETB actif": 1,
    "original_Adresse Siège Social ": "6 ALLEE CAMILLE MUFFAT 06200 NICE",
    "original_Code Postal": "6000",
    "original_Département": "6",
    "original_Echelon région": "Provence-Alpes-Côte d'Azur",
    "lat": 43.706453970190374, 
    "lon": 7.1922851644175765,
    "formatted": "6 Allée Camille Muffat, 21800 Sennecey-lès-Dijon, France",
    "name": null,
    "housenumber": "6",
    "street": "Allée Camille Muffat",
    "postcode": "21800",
    "district": "Sennecey-lès-Dijon",
    "suburb": null,
    "city": "Sennecey-lès-Dijon",
    "county": "Côte-d'Or",
    "state": "Bourgogne-Franche-Comté",
    "state_code": "BFC",
    "country": "France",
    "country_code": "fr",
    "confidence": "0",
    "confidence_city_level": null,
    "confidence_street_level": null
  },
  {
    "﻿original_N°": "120",
    "original_NOM": "Museum National d'Histoire Naturelle - Paris",
    "original_Tutelle": "MESR",
    "original_Nombre ETB actif": 16,
    "original_Adresse Siège Social ": "57 RUE CUVIER 75005 PARIS",
    "original_Code Postal": "75005",
    "original_Département": "75",
    "original_Echelon région": "Ile-de-France",
    "lat": 48.8443464,
    "lon": 2.3562118,
    "formatted": "57 Rue Cuvier, 75005 Paris, France",
    "name": null,
    "housenumber": "57",
    "street": "Rue Cuvier",
    "postcode": "75005",
    "district": "Paris",
    "suburb": "Paris 5e Arrondissement",
    "city": "Paris",
    "county": null,
    "state": "Île-de-France",
    "state_code": "IDF",
    "country": "France",
    "country_code": "fr",
    "confidence": "0.4",
    "confidence_city_level": "1",
    "confidence_street_level": "0.4"
  },
  {
    "﻿original_N°": "121",
    "original_NOM": "Observatoire de la Côte d'Azur - Nice",
    "original_Tutelle": "MESR",
    "original_Nombre ETB actif": 5,
    "original_Adresse Siège Social ": "OBSERVATOIRE DE NICE 06000 NICE",
    "original_Code Postal": "6000",
    "original_Département": "6",
    "original_Echelon région": "Provence-Alpes-Côte d'Azur",
    "lat": 43.699732,
    "lon": 7.269250963855416,
    "formatted": "Synagogue de Nice, Rue Gustave Deloye, 06000 Nice, France",
    "name": "Synagogue de Nice",
    "housenumber": null,
    "street": "Rue Gustave Deloye",
    "postcode": "6000",
    "district": null,
    "suburb": "Quartier Jean-Médecin",
    "city": "Nice",
    "county": "Alpes-Maritimes",
    "state": "Provence-Alpes-Côte d'Azur",
    "state_code": "PAC",
    "country": "France",
    "country_code": "fr",
    "confidence": "0.2",
    "confidence_city_level": "1",
    "confidence_street_level": "0.2"
  },
  {
    "﻿original_N°": "122",
    "original_NOM": "Observatoire de Paris",
    "original_Tutelle": "MESR",
    "original_Nombre ETB actif": 4,
    "original_Adresse Siège Social ": "61 AVENUE DE L'OBSERVATOIRE 75014 PARIS",
    "original_Code Postal": "75014",
    "original_Département": "75",
    "original_Echelon région": "Ile-de-France",
    "lat": 48.8369995,
    "lon": 2.336659,
    "formatted": "61 Avenue de l'Observatoire, 75014 Paris, France",
    "name": null,
    "housenumber": "61",
    "street": "Avenue de l'Observatoire",
    "postcode": "75014",
    "district": "Paris",
    "suburb": "Paris",
    "city": "Paris",
    "county": null,
    "state": "Île-de-France",
    "state_code": "IDF",
    "country": "France",
    "country_code": "fr",
    "confidence": "0.5",
    "confidence_city_level": "1",
    "confidence_street_level": "0.5"
  },
  {
    "﻿original_N°": "123",
    "original_NOM": "Office National d'Information Sur les Enseignements et les Professions - Lognes",
    "original_Tutelle": "MENJ",
    "original_Nombre ETB actif": 28,
    "original_Adresse Siège Social ": "12 MAIL BARTHELEMY THIMONNIER 77185 LOGNES",
    "original_Code Postal": "77185",
    "original_Département": "77",
    "original_Echelon région": "Ile-de-France",
    "lat": 48.8393935,
    "lon": 2.6278448885751935,
    "formatted": "ONISEP, 12 Mail Barthelemy Thimonnier, 77185 Lognes, France",
    "name": "ONISEP",
    "housenumber": "12",
    "street": "Mail Barthelemy Thimonnier",
    "postcode": "77185",
    "district": "Le Mandinet",
    "suburb": "Le Segrais",
    "city": "Lognes",
    "county": "Seine-et-Marne",
    "state": "Île-de-France",
    "state_code": "IDF",
    "country": "France",
    "country_code": "fr",
    "confidence": "0.5",
    "confidence_city_level": "1",
    "confidence_street_level": "0.5"
  },
  {
    "﻿original_N°": "124",
    "original_NOM": "U Aix Marseille - Marseille",
    "original_Tutelle": "MESR",
    "original_Nombre ETB actif": 71,
    "original_Adresse Siège Social ": "UNIVERSITE D'AIX MARSEILLE, 58 BOULEVARD CHARLES LIVON 13007 MARSEILLE",
    "original_Code Postal": "13007",
    "original_Département": "13",
    "original_Echelon région": "Provence-Alpes-Côte d'Azur",
    "lat": 43.292154,
    "lon": 5.359134,
    "formatted": "58 Boulevard Charles Livon, 13007 Marseille, France",
    "name": null,
    "housenumber": "58",
    "street": "Boulevard Charles Livon",
    "postcode": "13007",
    "district": "7e Arr.",
    "suburb": null,
    "city": "Marseille",
    "county": "Bouches-du-Rhône",
    "state": "Provence-Alpes-Côte D'Azur",
    "state_code": "PAC",
    "country": "France",
    "country_code": "fr",
    "confidence": "0.33333333333333337",
    "confidence_city_level": "1",
    "confidence_street_level": "0.33333333333333337"
  },
  {
    "﻿original_N°": "125",
    "original_NOM": "U Amiens - Picardie Jules Verne",
    "original_Tutelle": "MESR",
    "original_Nombre ETB actif": 47,
    "original_Adresse Siège Social ": "PRESIDENCE DE L UNIVERSITE, CHEMIN DU THIL 80000 AMIENS",
    "original_Code Postal": "80000",
    "original_Département": "80",
    "original_Echelon région": "Hauts-de-France",
    "lat": 49.8772,
    "lon": 2.269406,
    "formatted": "3 Chemin Du Thil, 80000 Amiens, France",
    "name": null,
    "housenumber": "3",
    "street": "Chemin Du Thil",
    "postcode": "80000",
    "district": "Saveuse",
    "suburb": null,
    "city": "Amiens",
    "county": "Somme",
    "state": "Hauts-de-France",
    "state_code": "HDF",
    "country": "France",
    "country_code": "fr",
    "confidence": "0.33333333333333337",
    "confidence_city_level": "1",
    "confidence_street_level": "0.33333333333333337"
  },
  {
    "﻿original_N°": "126",
    "original_NOM": "U Angers",
    "original_Tutelle": "MESR",
    "original_Nombre ETB actif": 22,
    "original_Adresse Siège Social ": "40 RUE DE RENNES 49100 ANGERS",
    "original_Code Postal": "49100",
    "original_Département": "49",
    "original_Echelon région": "Pays-de-la-Loire",
    "lat": 47.47687,
    "lon": -0.549657,
    "formatted": "40 Rue De Rennes, 49100 Angers, France",
    "name": null,
    "housenumber": "40",
    "street": "Rue De Rennes",
    "postcode": "49100",
    "district": "Angers",
    "suburb": null,
    "city": "Angers",
    "county": "Maine-et-Loire",
    "state": "Pays de la Loire",
    "state_code": "PDL",
    "country": "France",
    "country_code": "fr",
    "confidence": "0.5",
    "confidence_city_level": "1",
    "confidence_street_level": "0.5"
  },
  {
    "﻿original_N°": "127",
    "original_NOM": "U Artois - Arras",
    "original_Tutelle": "MESR",
    "original_Nombre ETB actif": 23,
    "original_Adresse Siège Social ": "9 RUE DU TEMPLE 62000 ARRAS",
    "original_Code Postal": "62000",
    "original_Département": "62",
    "original_Echelon région": "Hauts-de-France",
    "lat": 50.2787358,
    "lon": 2.7820174,
    "formatted": "Rue du Temple, 62000 Arras, France",
    "name": "Rue du Temple",
    "housenumber": null,
    "street": "Rue du Temple",
    "postcode": "62000",
    "district": null,
    "suburb": null,
    "city": "Arras",
    "county": "Pas-de-Calais",
    "state": "Hauts-de-France",
    "state_code": "HDF",
    "country": "France",
    "country_code": "fr",
    "confidence": "0.5",
    "confidence_city_level": "1",
    "confidence_street_level": "0.5"
  },
  {
    "﻿original_N°": "128",
    "original_NOM": "U Avignon",
    "original_Tutelle": "MESR",
    "original_Nombre ETB actif": 18,
    "original_Adresse Siège Social ": "74 RUE LOUIS PASTEUR 84000 AVIGNON",
    "original_Code Postal": "84000",
    "original_Département": "84",
    "original_Echelon région": "Provence-Alpes-Côte d'Azur",
    "lat": 43.9496009,
    "lon": 4.8171007,
    "formatted": "74 Rue Louis Pasteur, 84000 Avignon, France",
    "name": null,
    "housenumber": "74",
    "street": "Rue Louis Pasteur",
    "postcode": "84000",
    "district": null,
    "suburb": "Quartier Centre",
    "city": "Avignon",
    "county": "Vaucluse",
    "state": "Provence-Alpes-Côte d'Azur",
    "state_code": "PAC",
    "country": "France",
    "country_code": "fr",
    "confidence": "0.5",
    "confidence_city_level": "1",
    "confidence_street_level": "0.5"
  },
  {
    "﻿original_N°": "129",
    "original_NOM": "U Bordeaux - Talence",
    "original_Tutelle": "MESR",
    "original_Nombre ETB actif": 39,
    "original_Adresse Siège Social ": "35 PLACE PEY BERLAND 33000 BORDEAUX",
    "original_Code Postal": "33000",
    "original_Département": "33",
    "original_Echelon région": "Nouvelle Aquitaine",
    "lat": 44.8371333,
    "lon": -0.5780207,
    "formatted": "35 Place Pey Berland, 33000 Bordeaux, France",
    "name": null,
    "housenumber": "35",
    "street": "Place Pey Berland",
    "postcode": "33000",
    "district": "Bordeaux",
    "suburb": "Triangle d'Or",
    "city": "Bordeaux",
    "county": "Gironde",
    "state": "Nouvelle-Aquitaine",
    "state_code": "NAQ",
    "country": "France",
    "country_code": "fr",
    "confidence": "0.5",
    "confidence_city_level": "1",
    "confidence_street_level": "0.5"
  },
  {
    "﻿original_N°": "130",
    "original_NOM": "U Bordeaux Montaigne - Pessac",
    "original_Tutelle": "MESR",
    "original_Nombre ETB actif": 30,
    "original_Adresse Siège Social ": "SCIENCES HUMAINES, DOM UNIVERSITAIRE 33600 PESSAC",
    "original_Code Postal": "33600",
    "original_Département": "33",
    "original_Echelon région": "Nouvelle Aquitaine",
    "lat": 44.788966133,
    "lon": -0.679204573,
    "formatted": "33600 NAQ, France",
    "name": null,
    "housenumber": null,
    "street": null,
    "postcode": "33600",
    "district": null,
    "suburb": null,
    "city": null,
    "county": "Gironde",
    "state": "Nouvelle-Aquitaine",
    "state_code": "NAQ",
    "country": "France",
    "country_code": "fr",
    "confidence": "0",
    "confidence_city_level": "1",
    "confidence_street_level": null
  },
  {
    "﻿original_N°": "131",
    "original_NOM": "U Bourgogne - Dijon",
    "original_Tutelle": "MESR",
    "original_Nombre ETB actif": 54,
    "original_Adresse Siège Social ": "MAISON DE L'UNIVERSITE CAMPUS ESPLANADE ERASME 21000 DIJON",
    "original_Code Postal": "21000",
    "original_Département": "21",
    "original_Echelon région": "Bourgogne-Franche Comté",
    "lat": 47.313143,
    "lon": 5.063066,
    "formatted": "6 Esplanade Erasme, 21000 Dijon, France",
    "name": null,
    "housenumber": "6",
    "street": "Esplanade Erasme",
    "postcode": "21000",
    "district": "Dijon",
    "suburb": null,
    "city": "Dijon",
    "county": "Côte-d'Or",
    "state": "Bourgogne-Franche-Comté",
    "state_code": "BFC",
    "country": "France",
    "country_code": "fr",
    "confidence": "0.25",
    "confidence_city_level": "1",
    "confidence_street_level": "0.25"
  },
  {
    "﻿original_N°": "132",
    "original_NOM": "U Bourgogne Franche Comté - Besançon",
    "original_Tutelle": "MESR",
    "original_Nombre ETB actif": 44,
    "original_Adresse Siège Social ": "UNIVERSITE DE FRANCHE-COMTE, 1 RUE CLAUDE GOUDIMEL 25000 BESANCON",
    "original_Code Postal": "25000",
    "original_Département": "25",
    "original_Echelon région": "Bourgogne-Franche Comté",
    "lat": 47.240657,
    "lon": 6.023084,
    "formatted": "5 Rue Claude Goudimel, 25000 Besançon, France",
    "name": null,
    "housenumber": "5",
    "street": "Rue Claude Goudimel",
    "postcode": "25000",
    "district": "Besançon",
    "suburb": null,
    "city": "Besançon",
    "county": "Doubs",
    "state": "Bourgogne-Franche-Comté",
    "state_code": "BFC",
    "country": "France",
    "country_code": "fr",
    "confidence": "0.30000000000000004",
    "confidence_city_level": "1",
    "confidence_street_level": "0.30000000000000004"
  },
  {
    "﻿original_N°": "133",
    "original_NOM": "U Bretagne Occidentale (Brest)",
    "original_Tutelle": "MESR",
    "original_Nombre ETB actif": 35,
    "original_Adresse Siège Social ": "SITE 1 3 RUE MATTHIEU GALLOU 29200 BREST",
    "original_Code Postal": "29200",
    "original_Département": "29",
    "original_Echelon région": "Bretagne",
    "lat": 48.397635,
    "lon": -4.510206,
    "formatted": "Rue Matthieu Gallou, 29200 Brest, France",
    "name": null,
    "housenumber": null,
    "street": "Rue Matthieu Gallou",
    "postcode": "29200",
    "district": "Brest",
    "suburb": null,
    "city": "Brest",
    "county": "Finistère",
    "state": "Bretagne",
    "state_code": "BRE",
    "country": "France",
    "country_code": "fr",
    "confidence": "0",
    "confidence_city_level": null,
    "confidence_street_level": null
  },
  {
    "﻿original_N°": "134",
    "original_NOM": "U Bretagne Sud - Vannes",
    "original_Tutelle": "MESR",
    "original_Nombre ETB actif": 36,
    "original_Adresse Siège Social ": "27 RUE ARMAND GUILLEMOT 56100 LORIENT",
    "original_Code Postal": "56100",
    "original_Département": "56",
    "original_Echelon région": "Bretagne",
    "lat": 47.7454658,
    "lon": -3.3903164,
    "formatted": "Rue Armand Guillemot, 56100 Lorient, France",
    "name": "Rue Armand Guillemot",
    "housenumber": null,
    "street": "Rue Armand Guillemot",
    "postcode": "56100",
    "district": null,
    "suburb": "Lanveur",
    "city": "Lorient",
    "county": "Morbihan",
    "state": "Bretagne",
    "state_code": "BRE",
    "country": "France",
    "country_code": "fr",
    "confidence": "0.5",
    "confidence_city_level": "1",
    "confidence_street_level": "0.5"
  },
  {
    "﻿original_N°": "135",
    "original_NOM": "U Caen Normandie",
    "original_Tutelle": "MESR",
    "original_Nombre ETB actif": 35,
    "original_Adresse Siège Social ": "ESPLANADE DE LA PAIX 14000 CAEN",
    "original_Code Postal": "14000",
    "original_Département": "14",
    "original_Echelon région": "Normandie",
    "lat": 49.1887642,
    "lon": -0.3634297,
    "formatted": "Esplanade de la Paix, 14000 Caen, France",
    "name": "Esplanade de la Paix",
    "housenumber": null,
    "street": "Esplanade de la Paix",
    "postcode": "14000",
    "district": "Saint-Julien",
    "suburb": null,
    "city": "Caen",
    "county": "Calvados",
    "state": "Normandie",
    "state_code": "NOR",
    "country": "France",
    "country_code": "fr",
    "confidence": "0.6666666666666667",
    "confidence_city_level": "1",
    "confidence_street_level": "0.6666666666666667"
  },
  {
    "﻿original_N°": "136",
    "original_NOM": "U Cergy - CY Cergy Paris Université",
    "original_Tutelle": "MESR",
    "original_Nombre ETB actif": 17,
    "original_Adresse Siège Social ": "33 BOULEVARD DU PORT 95000 CERGY",
    "original_Code Postal": "95000",
    "original_Département": "95",
    "original_Echelon région": "Ile-de-France",
    "lat": 49.0392909,
    "lon": 2.0751426,
    "formatted": "33 Boulevard du Port, 95000 Cergy, France",
    "name": null,
    "housenumber": "33",
    "street": "Boulevard du Port",
    "postcode": "95000",
    "district": "Les Marjoberts",
    "suburb": "Grand Centre",
    "city": "Cergy",
    "county": "Val-d'Oise",
    "state": "Île-de-France",
    "state_code": "IDF",
    "country": "France",
    "country_code": "fr",
    "confidence": "0.5",
    "confidence_city_level": "1",
    "confidence_street_level": "0.5"
  },
  {
    "﻿original_N°": "137",
    "original_NOM": "U Chambéry - Savoie Mont Blanc",
    "original_Tutelle": "MESR",
    "original_Nombre ETB actif": 29,
    "original_Adresse Siège Social ": "27 RUE MARCOZ 73000 CHAMBERY",
    "original_Code Postal": "73000",
    "original_Département": "73",
    "original_Echelon région": "Auvergne-Rhône-Alpes",
    "lat": 45.5683692,
    "lon": 5.9152635,
    "formatted": "Rue Marcoz, 73000 Chambéry, France",
    "name": "Rue Marcoz",
    "housenumber": null,
    "street": "Rue Marcoz",
    "postcode": "73000",
    "district": "La Grenette",
    "suburb": null,
    "city": "Chambéry",
    "county": "Savoie",
    "state": "Auvergne-Rhône-Alpes",
    "state_code": "ARA",
    "country": "France",
    "country_code": "fr",
    "confidence": "0.4",
    "confidence_city_level": "1",
    "confidence_street_level": "0.4"
  },
  {
    "﻿original_N°": "138",
    "original_NOM": "U Clermont Auvergne - Clermont-Ferrand",
    "original_Tutelle": "MESR",
    "original_Nombre ETB actif": 35,
    "original_Adresse Siège Social ": "49 BOULEVARD FRANCOIS MITTERRAND 63000 CLERMONT-FERRAND",
    "original_Code Postal": "63000",
    "original_Département": "63",
    "original_Echelon région": "Auvergne-Rhône-Alpes",
    "lat": 45.7707628,
    "lon": 3.0878785,
    "formatted": "49 Boulevard François Mitterrand, 63000 Clermont-Ferrand, France",
    "name": null,
    "housenumber": "49",
    "street": "Boulevard François Mitterrand",
    "postcode": "63000",
    "district": "Ballainvilliers",
    "suburb": "Plateau central",
    "city": "Clermont-Ferrand",
    "county": "Puy-de-Dôme",
    "state": "Auvergne-Rhône-Alpes",
    "state_code": "ARA",
    "country": "France",
    "country_code": "fr",
    "confidence": "0.15752961",
    "confidence_city_level": "1",
    "confidence_street_level": "0.15752961"
  },
  {
    "﻿original_N°": "139",
    "original_NOM": "U Côte d'Azur - Nice",
    "original_Tutelle": "MESR",
    "original_Nombre ETB actif": 2,
    "original_Adresse Siège Social ": "GRAND CHATEAU 28 AVENUE VALROSE 06100 NICE",
    "original_Code Postal": "6100",
    "original_Département": "6",
    "original_Echelon région": "Provence-Alpes-Côte d'Azur",
    "lat": 43.718367,
    "lon": 7.26691,
    "formatted": "83 Avenue Valrose, 06100 Nice, France",
    "name": null,
    "housenumber": "83",
    "street": "Avenue Valrose",
    "postcode": "6100",
    "district": "Nice",
    "suburb": null,
    "city": "Nice",
    "county": "Alpes-Maritimes",
    "state": "Provence-Alpes-Côte D'Azur",
    "state_code": "PAC",
    "country": "France",
    "country_code": "fr",
    "confidence": "0.2857142857142857",
    "confidence_city_level": "1",
    "confidence_street_level": "0.2857142857142857"
  },
  {
    "﻿original_N°": "140",
    "original_NOM": "U de Corse Pasquale Aoli - Corte",
    "original_Tutelle": "MESR",
    "original_Nombre ETB actif": 19,
    "original_Adresse Siège Social ": "BAT JEAN TOUSSAINT DESANTI AVENUE DU 9 SEPTEMBRE 20250 CORTE",
    "original_Code Postal": "20250",
    "original_Département": "20",
    "original_Echelon région": "Corse",
    "lat": 42.286056252,
    "lon": 9.130574418,
    "formatted": "20250 COR, France",
    "name": null,
    "housenumber": null,
    "street": null,
    "postcode": "20250",
    "district": null,
    "suburb": null,
    "city": null,
    "county": null,
    "state": "Corse",
    "state_code": "COR",
    "country": "France",
    "country_code": "fr",
    "confidence": "0",
    "confidence_city_level": "1",
    "confidence_street_level": null
  },
  {
    "﻿original_N°": "141",
    "original_NOM": "U de Guyane - Cayenne",
    "original_Tutelle": "MESR",
    "original_Nombre ETB actif": 5,
    "original_Adresse Siège Social ": "CAMPUS DE TROUBIRAN 2091 ROUTE DE BADUEL 97300 CAYENNE",
    "original_Code Postal": "97300",
    "original_Département": "97",
    "original_Echelon région": "Guyane",
    "lat": 4.929309,
    "lon": -52.302507,
    "formatted": "2091 Route De Baduel, 97300 GF, France",
    "name": null,
    "housenumber": "2091",
    "street": "Route De Baduel",
    "postcode": "97300",
    "district": null,
    "suburb": null,
    "city": null,
    "county": null,
    "state": "Guyane",
    "state_code": "GF",
    "country": "France",
    "country_code": "fr",
    "confidence": "0.4444444444444444",
    "confidence_city_level": "1",
    "confidence_street_level": "0.4444444444444444"
  },
  {
    "﻿original_N°": "142",
    "original_NOM": "U de Haute Alsace - Mulhouse",
    "original_Tutelle": "MESR",
    "original_Nombre ETB actif": 32,
    "original_Adresse Siège Social ": "2 RUE DES FRERES LUMIERE 68200 MULHOUSE",
    "original_Code Postal": "68200",
    "original_Département": "68",
    "original_Echelon région": "Grand Est",
    "lat": 47.732352,
    "lon": 7.315093,
    "formatted": "2 Rue Des Frères Lumière, 68200 Mulhouse, France",
    "name": null,
    "housenumber": "2",
    "street": "Rue Des Frères Lumière",
    "postcode": "68200",
    "district": "Mulhouse",
    "suburb": null,
    "city": "Mulhouse",
    "county": "Haut-Rhin",
    "state": "Grand Est",
    "state_code": "GES",
    "country": "France",
    "country_code": "fr",
    "confidence": "0.35720999999999997",
    "confidence_city_level": "1",
    "confidence_street_level": "0.35720999999999997"
  },
  {
    "﻿original_N°": "143",
    "original_NOM": "U de Lorraine - Nancy",
    "original_Tutelle": "MESR",
    "original_Nombre ETB actif": 114,
    "original_Adresse Siège Social ": "34 COURS LEOPOLD 54000 NANCY",
    "original_Code Postal": "54000",
    "original_Département": "54",
    "original_Echelon région": "Grand Est",
    "lat": 48.696154,
    "lon": 6.176597,
    "formatted": "34 Cours Léopold, 54000 Nancy, France",
    "name": null,
    "housenumber": "34",
    "street": "Cours Léopold",
    "postcode": "54000",
    "district": "Nancy",
    "suburb": null,
    "city": "Nancy",
    "county": "Meurthe-et-Moselle",
    "state": "Grand Est",
    "state_code": "GES",
    "country": "France",
    "country_code": "fr",
    "confidence": "0.25004699999999996",
    "confidence_city_level": "1",
    "confidence_street_level": "0.25004699999999996"
  },
  {
    "﻿original_N°": "144",
    "original_NOM": "U de technologie Belfort Montbéliard",
    "original_Tutelle": "MESR",
    "original_Nombre ETB actif": 4,
    "original_Adresse Siège Social ": "90010BELFORT CEDEX 10 RUE CHATEAU 90400 SEVENANS",
    "original_Code Postal": "90400",
    "original_Département": "90",
    "original_Echelon région": "Bourgogne-Franche Comté",
    "lat": 47.586758,
    "lon": 6.873319,
    "formatted": "10 Rue Des Fromenteaux, 90400 Sevenans, France",
    "name": null,
    "housenumber": "10",
    "street": "Rue Des Fromenteaux",
    "postcode": "90400",
    "district": "Sevenans",
    "suburb": null,
    "city": "Sevenans",
    "county": "Territoire de Belfort",
    "state": "Bourgogne-Franche-Comté",
    "state_code": "BFC",
    "country": "France",
    "country_code": "fr",
    "confidence": "0.1794871794871795",
    "confidence_city_level": "1",
    "confidence_street_level": "0.1794871794871795"
  },
  {
    "﻿original_N°": "145",
    "original_NOM": "U de technologie de Compiègne",
    "original_Tutelle": "MESR",
    "original_Nombre ETB actif": 2,
    "original_Adresse Siège Social ": "UNIVERSITE DE TECHNOLOGIE DE COMPIEGNE, CENTRE PIERRE GUILLAUMAT RUE DU DOCTEUR SCHWEITZER 60200 COMPIEGNE",
    "original_Code Postal": "60200",
    "original_Département": "60",
    "original_Echelon région": "Hauts-de-France",
    "lat": 49.400254,
    "lon": 2.800101,
    "formatted": "1 Rue Du Docteur Schweitzer, 60200 Compiègne, France",
    "name": null,
    "housenumber": "1",
    "street": "Rue Du Docteur Schweitzer",
    "postcode": "60200",
    "district": "Compiègne",
    "suburb": "Venette",
    "city": "Compiègne",
    "county": "Oise",
    "state": "Hauts-de-France",
    "state_code": "HDF",
    "country": "France",
    "country_code": "fr",
    "confidence": "0.2857142857142857",
    "confidence_city_level": "1",
    "confidence_street_level": "0.2857142857142857"
  },
  {
    "﻿original_N°": "146",
    "original_NOM": "U de Technologie de Troyes",
    "original_Tutelle": "MESR",
    "original_Nombre ETB actif": 3,
    "original_Adresse Siège Social ": "12 RUE MARIE CURIE 10000 TROYES",
    "original_Code Postal": "10000",
    "original_Département": "10",
    "original_Echelon région": "Grand Est",
    "lat": 48.2726902,
    "lon": 4.0770727,
    "formatted": "Rue Marie Curie, 10000 Troyes, France",
    "name": "Rue Marie Curie",
    "housenumber": null,
    "street": "Rue Marie Curie",
    "postcode": "10000",
    "district": null,
    "suburb": null,
    "city": "Troyes",
    "county": "Aube",
    "state": "Grand Est",
    "state_code": "GES",
    "country": "France",
    "country_code": "fr",
    "confidence": "0.5",
    "confidence_city_level": "1",
    "confidence_street_level": "0.5"
  },
  {
    "﻿original_N°": "147",
    "original_NOM": "U Evry",
    "original_Tutelle": "MESR",
    "original_Nombre ETB actif": 15,
    "original_Adresse Siège Social ": "23 BD FRANCOIS MITTERRAND 91000 EVRY-COURCOURONNES",
    "original_Code Postal": "91000",
    "original_Département": "91",
    "original_Echelon région": "Ile-de-France",
    "lat": 48.624349,
    "lon": 2.42733,
    "formatted": "23 Boulevard François Mitterrand, 91000 Évry, France",
    "name": null,
    "housenumber": "23",
    "street": "Boulevard François Mitterrand",
    "postcode": "91000",
    "district": "Évry",
    "suburb": null,
    "city": "Évry",
    "county": "Essonne",
    "state": "Île-De-France",
    "state_code": "IDF",
    "country": "France",
    "country_code": "fr",
    "confidence": "0.15752961",
    "confidence_city_level": "1",
    "confidence_street_level": "0.15752961"
  },
  {
    "﻿original_N°": "148",
    "original_NOM": "U Grenoble Alpes",
    "original_Tutelle": "MESR",
    "original_Nombre ETB actif": 28,
    "original_Adresse Siège Social ": "621 AVENUE CENTRALE 38400 SAINT-MARTIN-D'HERES",
    "original_Code Postal": "38400",
    "original_Département": "38",
    "original_Echelon région": "Auvergne-Rhône-Alpes",
    "lat": 45.19156085,
    "lon": 5.76726385662386,
    "formatted": "Présidence Université Grenoble Alpes, 621 Avenue Centrale, 38400 Saint-Martin-d'Hères, France",
    "name": "Présidence Université Grenoble Alpes",
    "housenumber": "621",
    "street": "Avenue Centrale",
    "postcode": "38400",
    "district": null,
    "suburb": "Domaine universitaire de Grenoble",
    "city": "Saint-Martin-d'Hères",
    "county": "Isère",
    "state": "Auvergne-Rhône-Alpes",
    "state_code": "ARA",
    "country": "France",
    "country_code": "fr",
    "confidence": "0.2857142857142857",
    "confidence_city_level": "1",
    "confidence_street_level": "0.2857142857142857"
  },
  {
    "﻿original_N°": "149",
    "original_NOM": "U Gustave Eiffel - Champs-sur-Marne",
    "original_Tutelle": "MESR",
    "original_Nombre ETB actif": 26,
    "original_Adresse Siège Social ": "CAMPUS DE MARNE-LA-VALLEE 5 BOULEVARD DESCARTES 77420 CHAMPS-SUR-MARNE",
    "original_Code Postal": "77420",
    "original_Département": "77",
    "original_Echelon région": "Ile-de-France",
    "lat": 48.863525,
    "lon": 2.59298,
    "formatted": "5 Boulevard De La Marne, 77420 Champs-sur-Marne, France",
    "name": null,
    "housenumber": "5",
    "street": "Boulevard De La Marne",
    "postcode": "77420",
    "district": "Champs-sur-Marne",
    "suburb": null,
    "city": "Champs-sur-Marne",
    "county": "Seine-et-Marne",
    "state": "Île-De-France",
    "state_code": "IDF",
    "country": "France",
    "country_code": "fr",
    "confidence": "0.41666666666666663",
    "confidence_city_level": "1",
    "confidence_street_level": "0.41666666666666663"
  },
  {
    "﻿original_N°": "150",
    "original_NOM": "U La Réunion - St Denis 974",
    "original_Tutelle": "MESR",
    "original_Nombre ETB actif": 31,
    "original_Adresse Siège Social ": "15 AVENUE RENE CASSIN 97490 SAINT-DENIS",
    "original_Code Postal": "97490",
    "original_Département": "97",
    "original_Echelon région": "La Réunion",
    "lat": -20.900527,
    "lon": 55.483731,
    "formatted": "15 Avenue Rene Cassin, 97490 RE, France",
    "name": null,
    "housenumber": "15",
    "street": "Avenue Rene Cassin",
    "postcode": "97490",
    "district": null,
    "suburb": null,
    "city": null,
    "county": null,
    "state": "La Réunion",
    "state_code": "RE",
    "country": "France",
    "country_code": "fr",
    "confidence": "0.4285714285714286",
    "confidence_city_level": "1",
    "confidence_street_level": "0.4285714285714286"
  },
  {
    "﻿original_N°": "151",
    "original_NOM": "U La Rochelle",
    "original_Tutelle": "MESR",
    "original_Nombre ETB actif": 25,
    "original_Adresse Siège Social ": "UNIVERSITE LA ROCHELLE, 23 AVENUE ALBERT EINSTEIN 17000 LA ROCHELLE",
    "original_Code Postal": "17000",
    "original_Département": "17",
    "original_Echelon région": "Nouvelle Aquitaine",
    "lat": 46.148176,
    "lon": -1.154897,
    "formatted": "23 Avenue Albert Einstein, 17000 La Rochelle, France",
    "name": null,
    "housenumber": "23",
    "street": "Avenue Albert Einstein",
    "postcode": "17000",
    "district": "La Rochelle",
    "suburb": null,
    "city": "La Rochelle",
    "county": "Charente-Maritime",
    "state": "Nouvelle-Aquitaine",
    "state_code": "NAQ",
    "country": "France",
    "country_code": "fr",
    "confidence": "0.30000000000000004",
    "confidence_city_level": "1",
    "confidence_street_level": "0.30000000000000004"
  },
  {
    "﻿original_N°": "152",
    "original_NOM": "U Le Havre Normandie",
    "original_Tutelle": "MESR",
    "original_Nombre ETB actif": 13,
    "original_Adresse Siège Social ": "25 RUE PHILIPPE LEBON 76600 LE HAVRE",
    "original_Code Postal": "76600",
    "original_Département": "76",
    "original_Echelon région": "Normandie",
    "lat": 49.496003,
    "lon": 0.128917,
    "formatted": "25 Rue Philippe Lebon, 76600 Le Havre, France",
    "name": null,
    "housenumber": "25",
    "street": "Rue Philippe Lebon",
    "postcode": "76600",
    "district": "Le Havre",
    "suburb": null,
    "city": "Le Havre",
    "county": "Seine-Maritime",
    "state": "Normandie",
    "state_code": "NOR",
    "country": "France",
    "country_code": "fr",
    "confidence": "0.4285714285714286",
    "confidence_city_level": "1",
    "confidence_street_level": "0.4285714285714286"
  },
  {
    "﻿original_N°": "153",
    "original_NOM": "U Le Mans",
    "original_Tutelle": "MESR",
    "original_Nombre ETB actif": 15,
    "original_Adresse Siège Social ": "AVENUE OLIVIER MESSIAEN 72000 LE MANS",
    "original_Code Postal": "72000",
    "original_Département": "72",
    "original_Echelon région": "Pays-de-la-Loire",
    "lat": 48.0138612,
    "lon": 0.1686964,
    "formatted": "Avenue Olivier Messiaen, 72000 Le Mans, France",
    "name": "Avenue Olivier Messiaen",
    "housenumber": null,
    "street": "Avenue Olivier Messiaen",
    "postcode": "72000",
    "district": null,
    "suburb": null,
    "city": "Le Mans",
    "county": "Sarthe",
    "state": "Pays de la Loire",
    "state_code": "PDL",
    "country": "France",
    "country_code": "fr",
    "confidence": "0.5",
    "confidence_city_level": "1",
    "confidence_street_level": "0.5"
  },
  {
    "﻿original_N°": "154",
    "original_NOM": "U Lille",
    "original_Tutelle": "MESR",
    "original_Nombre ETB actif": 35,
    "original_Adresse Siège Social ": "42 RUE PAUL DUEZ 59800 LILLE",
    "original_Code Postal": "59800",
    "original_Département": "59",
    "original_Echelon région": "Hauts-de-France",
    "lat": 50.631794,
    "lon": 3.07526,
    "formatted": "42 Rue Paul Duez, 59800 Lille, France",
    "name": null,
    "housenumber": "42",
    "street": "Rue Paul Duez",
    "postcode": "59800",
    "district": "Lille",
    "suburb": null,
    "city": "Lille",
    "county": "Nord",
    "state": "Hauts-de-France",
    "state_code": "HDF",
    "country": "France",
    "country_code": "fr",
    "confidence": "0.5",
    "confidence_city_level": "1",
    "confidence_street_level": "0.5"
  },
  {
    "﻿original_N°": "155",
    "original_NOM": "U Limoges",
    "original_Tutelle": "MESR",
    "original_Nombre ETB actif": 31,
    "original_Adresse Siège Social ": "SERVICES CENTRAUX, HOTEL DE L'UNIVERSITE 33 RUE FRANCOIS MITTERRAND 87000 LIMOGES",
    "original_Code Postal": "87000",
    "original_Département": "87",
    "original_Echelon région": "Nouvelle Aquitaine",
    "lat": 45.82638,
    "lon": 1.258518,
    "formatted": "33 Rue François Mitterrand, 87000 Limoges, France",
    "name": null,
    "housenumber": "33",
    "street": "Rue François Mitterrand",
    "postcode": "87000",
    "district": "Limoges",
    "suburb": null,
    "city": "Limoges",
    "county": "Haute-Vienne",
    "state": "Nouvelle-Aquitaine",
    "state_code": "NAQ",
    "country": "France",
    "country_code": "fr",
    "confidence": "0.05064403678928999",
    "confidence_city_level": "1",
    "confidence_street_level": "0.05064403678928999"
  },
  {
    "﻿original_N°": "156",
    "original_NOM": "U Littoral Côte d'Opale - Dunkerque",
    "original_Tutelle": "MESR",
    "original_Nombre ETB actif": 26,
    "original_Adresse Siège Social ": "UNIVERSITE DU LITTORAL COTE D'OPALE, 1 PLACE DE L'YSER 59140 DUNKERQUE",
    "original_Code Postal": "59140",
    "original_Département": "59",
    "original_Echelon région": "Hauts-de-France",
    "lat": 51.039044,
    "lon": 2.37214,
    "formatted": "1 Place De l'Yser, 59140 Dunkerque, France",
    "name": null,
    "housenumber": "1",
    "street": "Place De l'Yser",
    "postcode": "59140",
    "district": "Dunkerque",
    "suburb": null,
    "city": "Dunkerque",
    "county": "Nord",
    "state": "Hauts-de-France",
    "state_code": "HDF",
    "country": "France",
    "country_code": "fr",
    "confidence": "0.2727272727272727",
    "confidence_city_level": "1",
    "confidence_street_level": "0.2727272727272727"
  },
  {
    "﻿original_N°": "157",
    "original_NOM": "U Lumière Lyon 2",
    "original_Tutelle": "MESR",
    "original_Nombre ETB actif": 21,
    "original_Adresse Siège Social ": "86 RUE PASTEUR 69007 LYON",
    "original_Code Postal": "69007",
    "original_Département": "69",
    "original_Echelon région": "Auvergne-Rhône-Alpes",
    "lat": 45.7553565,
    "lon": 4.8415422,
    "formatted": "Rue Pasteur, 69007 Lyon, France",
    "name": "Rue Pasteur",
    "housenumber": null,
    "street": "Rue Pasteur",
    "postcode": "69007",
    "district": null,
    "suburb": "La Guillotière",
    "city": "Lyon",
    "county": "Métropole de Lyon",
    "state": "Auvergne-Rhône-Alpes",
    "state_code": "ARA",
    "country": "France",
    "country_code": "fr",
    "confidence": "0.4",
    "confidence_city_level": "1",
    "confidence_street_level": "0.4"
  },
  {
    "﻿original_N°": "158",
    "original_NOM": "U Lyon 1 Claude Bernard",
    "original_Tutelle": "MESR",
    "original_Nombre ETB actif": 19,
    "original_Adresse Siège Social ": "43 BOULEVARD DU 11 NOVEMBRE 1918 69100 VILLEURBANNE",
    "original_Code Postal": "69100",
    "original_Département": "69",
    "original_Echelon région": "Auvergne-Rhône-Alpes",
    "lat": 45.78166445,
    "lon": 4.868154514412188,
    "formatted": "Université Claude Bernard - Lyon 1 - Campus LyonTech-la Doua, 43 Boulevard du 11 Novembre 1918, 69100 Villeurbanne, France",
    "name": "Université Claude Bernard - Lyon 1 - Campus LyonTech-la Doua",
    "housenumber": "43",
    "street": "Boulevard du 11 Novembre 1918",
    "postcode": "69100",
    "district": null,
    "suburb": "Tonkin",
    "city": "Villeurbanne",
    "county": "Métropole de Lyon",
    "state": "Auvergne-Rhône-Alpes",
    "state_code": "ARA",
    "country": "France",
    "country_code": "fr",
    "confidence": "0.625",
    "confidence_city_level": "1",
    "confidence_street_level": "0.625"
  },
  {
    "﻿original_N°": "159",
    "original_NOM": "U Lyon 3",
    "original_Tutelle": "MESR",
    "original_Nombre ETB actif": 18,
    "original_Adresse Siège Social ": "1 AVENUE DES FRERES LUMIERE 69008 LYON",
    "original_Code Postal": "69008",
    "original_Département": "69",
    "original_Echelon région": "Auvergne-Rhône-Alpes",
    "lat": 45.7471826,
    "lon": 4.8597486,
    "formatted": "1 Avenue des Frères Lumière, 69008 Lyon, France",
    "name": null,
    "housenumber": "1",
    "street": "Avenue des Frères Lumière",
    "postcode": "69008",
    "district": null,
    "suburb": "Monplaisir",
    "city": "Lyon",
    "county": "Métropole de Lyon",
    "state": "Auvergne-Rhône-Alpes",
    "state_code": "ARA",
    "country": "France",
    "country_code": "fr",
    "confidence": "0.35720999999999997",
    "confidence_city_level": "1",
    "confidence_street_level": "0.35720999999999997"
  },
  {
    "﻿original_N°": "160",
    "original_NOM": "U Montpellier 1",
    "original_Tutelle": "MESR",
    "original_Nombre ETB actif": 37,
    "original_Adresse Siège Social ": "163 RUE AUGUSTE BROUSSONNET 34090 MONTPELLIER",
    "original_Code Postal": "34090",
    "original_Département": "34",
    "original_Echelon région": "Provence-Alpes-Côte d'Azur",
    "lat": 43.615821,
    "lon": 3.872128,
    "formatted": "163 Rue Auguste Broussonnet, 34090 Montpellier, France",
    "name": null,
    "housenumber": "163",
    "street": "Rue Auguste Broussonnet",
    "postcode": "34090",
    "district": "Montpellier",
    "suburb": null,
    "city": "Montpellier",
    "county": "Hérault",
    "state": "Occitanie",
    "state_code": "OCC",
    "country": "France",
    "country_code": "fr",
    "confidence": "0.5",
    "confidence_city_level": "1",
    "confidence_street_level": "0.5"
  },
  {
    "﻿original_N°": "161",
    "original_NOM": "U Nantes",
    "original_Tutelle": "MESR",
    "original_Nombre ETB actif": 22,
    "original_Adresse Siège Social ": "1 QUAI DE TOURVILLE 44300 NANTES",
    "original_Code Postal": "44300",
    "original_Département": "44",
    "original_Echelon région": "Pays-de-la-Loire",
    "lat": 47.209413,
    "lon": -1.555908,
    "formatted": "1 Quai De Tourville, 44300 Nantes, France",
    "name": null,
    "housenumber": "1",
    "street": "Quai De Tourville",
    "postcode": "44300",
    "district": "Nantes",
    "suburb": null,
    "city": "Nantes",
    "county": "Loire-Atlantique",
    "state": "Pays de la Loire",
    "state_code": "PDL",
    "country": "France",
    "country_code": "fr",
    "confidence": "0.5",
    "confidence_city_level": "1",
    "confidence_street_level": "0.5"
  },
  {
    "﻿original_N°": "162",
    "original_NOM": "U Nîmes",
    "original_Tutelle": "MESR",
    "original_Nombre ETB actif": 2,
    "original_Adresse Siège Social ": "RUE DU DOCTEUR GEORGES SALAN 30000 NIMES",
    "original_Code Postal": "30000",
    "original_Département": "30",
    "original_Echelon région": "Provence-Alpes-Côte d'Azur",
    "lat": 43.841803,
    "lon": 4.357072,
    "formatted": "1 Rue Du Docteur Georges Salan, 30000 Nîmes, France",
    "name": null,
    "housenumber": "1",
    "street": "Rue Du Docteur Georges Salan",
    "postcode": "30000",
    "district": "Nîmes",
    "suburb": null,
    "city": "Nîmes",
    "county": "Gard",
    "state": "Occitanie",
    "state_code": "OCC",
    "country": "France",
    "country_code": "fr",
    "confidence": "0.7142857142857143",
    "confidence_city_level": "1",
    "confidence_street_level": "0.7142857142857143"
  },
  {
    "﻿original_N°": "163",
    "original_NOM": "U Orléans",
    "original_Tutelle": "MESR",
    "original_Nombre ETB actif": 41,
    "original_Adresse Siège Social ": "AV DU CHATEAU DE LA SOURCE 45000 ORLEANS",
    "original_Code Postal": "45000",
    "original_Département": "45",
    "original_Echelon région": "Centre Val-de-Loir",
    "lat": 47.916566256,
    "lon": 1.912608247,
    "formatted": "45000 CVL, France",
    "name": null,
    "housenumber": null,
    "street": null,
    "postcode": "45000",
    "district": null,
    "suburb": null,
    "city": null,
    "county": "Loiret",
    "state": "Centre-Val de Loire",
    "state_code": "CVL",
    "country": "France",
    "country_code": "fr",
    "confidence": "0",
    "confidence_city_level": "1",
    "confidence_street_level": null
  },
  {
    "﻿original_N°": "164",
    "original_NOM": "U Paris 1 Panthéon-Sorbonne",
    "original_Tutelle": "MESR",
    "original_Nombre ETB actif": 35,
    "original_Adresse Siège Social ": "12 PLACE DU PANTHEON 75005 PARIS",
    "original_Code Postal": "75005",
    "original_Département": "75",
    "original_Echelon région": "Ile-de-France",
    "lat": 48.8470111,
    "lon": 2.343799248658736,
    "formatted": "Université Paris I Panthéon-Sorbonne, 12 Place du Panthéon, 75005 Paris, France",
    "name": "Université Paris I Panthéon-Sorbonne",
    "housenumber": "12",
    "street": "Place du Panthéon",
    "postcode": "75005",
    "district": "Paris",
    "suburb": "Paris 5e Arrondissement",
    "city": "Paris",
    "county": null,
    "state": "Île-de-France",
    "state_code": "IDF",
    "country": "France",
    "country_code": "fr",
    "confidence": "0.25004699999999996",
    "confidence_city_level": "1",
    "confidence_street_level": "0.25004699999999996"
  },
  {
    "﻿original_N°": "165",
    "original_NOM": "U Paris Cité",
    "original_Tutelle": "MESR",
    "original_Nombre ETB actif": 13,
    "original_Adresse Siège Social ": "85 BOULEVARD SAINT-GERMAIN 75006 PARIS",
    "original_Code Postal": "75006",
    "original_Département": "75",
    "original_Echelon région": "Ile-de-France",
    "lat": 48.8519064,
    "lon": 2.3400882,
    "formatted": "85 Boulevard Saint-Germain, 75006 Paris, France",
    "name": null,
    "housenumber": "85",
    "street": "Boulevard Saint-Germain",
    "postcode": "75006",
    "district": "Paris",
    "suburb": "Paris 6e Arrondissement",
    "city": "Paris",
    "county": null,
    "state": "Île-de-France",
    "state_code": "IDF",
    "country": "France",
    "country_code": "fr",
    "confidence": "0.5",
    "confidence_city_level": "1",
    "confidence_street_level": "0.5"
  },
  {
    "﻿original_N°": "166",
    "original_NOM": "U Paris Dauphine PSL",
    "original_Tutelle": "MESR",
    "original_Nombre ETB actif": 8,
    "original_Adresse Siège Social ": "DAUPHINE, PLACE DU MARECHAL DE LATTRE DE TASSIGNY 75016 PARIS",
    "original_Code Postal": "75016",
    "original_Département": "75",
    "original_Echelon région": "Ile-de-France",
    "lat": 48.870983,
    "lon": 2.274399,
    "formatted": "9 Place Du Maréchal De Lattre De Tassigny, 75016 Paris, France",
    "name": null,
    "housenumber": "9",
    "street": "Place Du Maréchal De Lattre De Tassigny",
    "postcode": "75016",
    "district": "Paris",
    "suburb": "Porte Dauphine",
    "city": "Paris",
    "county": "Paris",
    "state": "Île-De-France",
    "state_code": "IDF",
    "country": "France",
    "country_code": "fr",
    "confidence": "0.25004699999999996",
    "confidence_city_level": "1",
    "confidence_street_level": "0.25004699999999996"
  },
  {
    "﻿original_N°": "167",
    "original_NOM": "U Paris Est Créteil Val de Marne - Paris XII",
    "original_Tutelle": "MESR",
    "original_Nombre ETB actif": 74,
    "original_Adresse Siège Social ": "61 AVENUE DU GENERAL DE GAULLE 94000 CRETEIL",
    "original_Code Postal": "94000",
    "original_Département": "94",
    "original_Echelon région": "Ile-de-France",
    "lat": 48.788799,
    "lon": 2.442388,
    "formatted": "61 Avenue Du Général De Gaulle, 94000 Créteil, France",
    "name": null,
    "housenumber": "61",
    "street": "Avenue Du Général De Gaulle",
    "postcode": "94000",
    "district": "Créteil",
    "suburb": null,
    "city": "Créteil",
    "county": "Val-de-Marne",
    "state": "Île-De-France",
    "state_code": "IDF",
    "country": "France",
    "country_code": "fr",
    "confidence": "0.25004699999999996",
    "confidence_city_level": "1",
    "confidence_street_level": "0.25004699999999996"
  },
  {
    "﻿original_N°": "168",
    "original_NOM": "U Paris Nanterre",
    "original_Tutelle": "MESR",
    "original_Nombre ETB actif": 36,
    "original_Adresse Siège Social ": "200 AVENUE DE LA REPUBLIQUE 92000 NANTERRE",
    "original_Code Postal": "92000",
    "original_Département": "92",
    "original_Echelon région": "Ile-de-France",
    "lat": 48.903003,
    "lon": 2.209615,
    "formatted": "200 Avenue De La République, 92000 Nanterre, France",
    "name": null,
    "housenumber": "200",
    "street": "Avenue De La République",
    "postcode": "92000",
    "district": "Nanterre",
    "suburb": null,
    "city": "Nanterre",
    "county": "Hauts-de-Seine",
    "state": "Île-De-France",
    "state_code": "IDF",
    "country": "France",
    "country_code": "fr",
    "confidence": "0.25004699999999996",
    "confidence_city_level": "1",
    "confidence_street_level": "0.25004699999999996"
  },
  {
    "﻿original_N°": "169",
    "original_NOM": "U Paris Saclay",
    "original_Tutelle": "MESR",
    "original_Nombre ETB actif": 4,
    "original_Adresse Siège Social ": "BATIMENT BREGUET 3 RUE JOLIOT-CURIE 91190 GIF-SUR-YVETTE",
    "original_Code Postal": "91190",
    "original_Département": "91",
    "original_Echelon région": "Ile-de-France",
    "lat": 48.709796,
    "lon": 2.162981,
    "formatted": "1 Rue Joliot-curie, 91190 Gif-sur-Yvette, France",
    "name": null,
    "housenumber": "1",
    "street": "Rue Joliot-curie",
    "postcode": "91190",
    "district": "Gif-sur-Yvette",
    "suburb": null,
    "city": "Gif-sur-Yvette",
    "county": "Essonne",
    "state": "Île-De-France",
    "state_code": "IDF",
    "country": "France",
    "country_code": "fr",
    "confidence": "0.30000000000000004",
    "confidence_city_level": "1",
    "confidence_street_level": "0.30000000000000004"
  },
  {
    "﻿original_N°": "170",
    "original_NOM": "U Paris Sciences Lettres - UPSL",
    "original_Tutelle": "MESR",
    "original_Nombre ETB actif": 1,
    "original_Adresse Siège Social ": "60 RUE MAZARINE 75006 PARIS",
    "original_Code Postal": "75006",
    "original_Département": "75",
    "original_Echelon région": "Ile-de-France",
    "lat": 48.854654,
    "lon": 2.3378386313969113,
    "formatted": "Université PSL, 60 Rue Mazarine, 75006 Paris, France",
    "name": "Université PSL",
    "housenumber": "60",
    "street": "Rue Mazarine",
    "postcode": "75006",
    "district": "Paris",
    "suburb": "Paris 6e Arrondissement",
    "city": "Paris",
    "county": null,
    "state": "Île-de-France",
    "state_code": "IDF",
    "country": "France",
    "country_code": "fr",
    "confidence": "0.4",
    "confidence_city_level": "1",
    "confidence_street_level": "0.4"
  },
  {
    "﻿original_N°": "171",
    "original_NOM": "U Paris VIII",
    "original_Tutelle": "MESR",
    "original_Nombre ETB actif": 43,
    "original_Adresse Siège Social ": "UNIVERSITE PARIS VIII.PARIS VINCENN, 2 RUE DE LA LIBERTE 93200 SAINT-DENIS",
    "original_Code Postal": "93200",
    "original_Département": "93",
    "original_Echelon région": "Ile-de-France",
    "lat": 48.945306,
    "lon": 2.363875,
    "formatted": "2 Rue De La Liberté, 93200 Saint-Denis, France",
    "name": null,
    "housenumber": "2",
    "street": "Rue De La Liberté",
    "postcode": "93200",
    "district": "Saint-Denis",
    "suburb": null,
    "city": "Saint-Denis",
    "county": "Seine-Saint-Denis",
    "state": "Île-De-France",
    "state_code": "IDF",
    "country": "France",
    "country_code": "fr",
    "confidence": "0.04557963311036099",
    "confidence_city_level": "1",
    "confidence_street_level": "0.04557963311036099"
  },
  {
    "﻿original_N°": "172",
    "original_NOM": "U Paris-Panthéon-Assas",
    "original_Tutelle": "MESR",
    "original_Nombre ETB actif": 3,
    "original_Adresse Siège Social ": "12 PLACE DU PANTHEON 75005 PARIS",
    "original_Code Postal": "75005",
    "original_Département": "75",
    "original_Echelon région": "Ile-de-France",
    "lat": 48.8470111,
    "lon": 2.343799248658736,
    "formatted": "Université Paris I Panthéon-Sorbonne, 12 Place du Panthéon, 75005 Paris, France",
    "name": "Université Paris I Panthéon-Sorbonne",
    "housenumber": "12",
    "street": "Place du Panthéon",
    "postcode": "75005",
    "district": "Paris",
    "suburb": "Paris 5e Arrondissement",
    "city": "Paris",
    "county": null,
    "state": "Île-de-France",
    "state_code": "IDF",
    "country": "France",
    "country_code": "fr",
    "confidence": "0.25004699999999996",
    "confidence_city_level": "1",
    "confidence_street_level": "0.25004699999999996"
  },
  {
    "﻿original_N°": "173",
    "original_NOM": "U Pau",
    "original_Tutelle": "MESR",
    "original_Nombre ETB actif": 35,
    "original_Adresse Siège Social ": "AVENUE DE L'UNIVERSITE 64000 PAU",
    "original_Code Postal": "64000",
    "original_Département": "64",
    "original_Echelon région": "Occitanie",
    "lat": 43.3113395,
    "lon": -0.3646819,
    "formatted": "Avenue de l'Université, 64000 Pau, France",
    "name": "Avenue de l'Université",
    "housenumber": null,
    "street": "Avenue de l'Université",
    "postcode": "64000",
    "district": null,
    "suburb": "Pau Nord",
    "city": "Pau",
    "county": "Pyrénées-Atlantiques",
    "state": "Nouvelle-Aquitaine",
    "state_code": "NAQ",
    "country": "France",
    "country_code": "fr",
    "confidence": "0.3969",
    "confidence_city_level": "1",
    "confidence_street_level": "0.3969"
  },
  {
    "﻿original_N°": "174",
    "original_NOM": "U Perpignan Via Domitia",
    "original_Tutelle": "MESR",
    "original_Nombre ETB actif": 34,
    "original_Adresse Siège Social ": "52 AVENUE PAUL ALDUY 66100 PERPIGNAN",
    "original_Code Postal": "66100",
    "original_Département": "66",
    "original_Echelon région": "Occitanie",
    "lat": 42.68305,
    "lon": 2.901805,
    "formatted": "52 Avenue Paul Alduy, 66100 Perpignan, France",
    "name": null,
    "housenumber": "52",
    "street": "Avenue Paul Alduy",
    "postcode": "66100",
    "district": "Perpignan",
    "suburb": null,
    "city": "Perpignan",
    "county": "Pyrénées-Orientales",
    "state": "Occitanie",
    "state_code": "OCC",
    "country": "France",
    "country_code": "fr",
    "confidence": "0.5",
    "confidence_city_level": "1",
    "confidence_street_level": "0.5"
  },
  {
    "﻿original_N°": "175",
    "original_NOM": "U Poitiers",
    "original_Tutelle": "MESR",
    "original_Nombre ETB actif": 48,
    "original_Adresse Siège Social ": "UNIVERSITE DE POITIERS, 15 RUE DE L'HOTEL DIEU 86000 POITIERS",
    "original_Code Postal": "86000",
    "original_Département": "86",
    "original_Echelon région": "Nouvelle Aquitaine",
    "lat": 46.58569,
    "lon": 0.345783,
    "formatted": "15 Rue De l'Hotel Dieu, 86000 Poitiers, France",
    "name": null,
    "housenumber": "15",
    "street": "Rue De l'Hotel Dieu",
    "postcode": "86000",
    "district": "Poitiers",
    "suburb": null,
    "city": "Poitiers",
    "county": "Vienne",
    "state": "Nouvelle-Aquitaine",
    "state_code": "NAQ",
    "country": "France",
    "country_code": "fr",
    "confidence": "0.5",
    "confidence_city_level": "1",
    "confidence_street_level": "0.5"
  },
  {
    "﻿original_N°": "176",
    "original_NOM": "U Polynésie Française - Punaauia",
    "original_Tutelle": "MESR",
    "original_Nombre ETB actif": 3,
    "original_Adresse Siège Social ": "CAMPUS D OUTUMAORO 98703 PUNAAUIA",
    "original_Code Postal": "98703",
    "original_Département": "98",
    "original_Echelon région": "Polynésie",
    "lat": -17.6246833,
    "lon": -149.6129254,
    "formatted": "98703 Punaʻauiʻa, France",
    "name": null,
    "housenumber": null,
    "street": null,
    "postcode": "98703",
    "district": null,
    "suburb": null,
    "city": "Punaʻauiʻa",
    "county": "Îles du Vent",
    "state": "Polynésie française",
    "state_code": null,
    "country": "France",
    "country_code": "fr",
    "confidence": "0",
    "confidence_city_level": "1",
    "confidence_street_level": null
  },
  {
    "﻿original_N°": "177",
    "original_NOM": "U polytechnique Hauts de France - Valenciennes",
    "original_Tutelle": "MESR",
    "original_Nombre ETB actif": 3,
    "original_Adresse Siège Social ": "UNIV VALENCIEN MONT HOUY 59300 AULNOY-LEZ-VALENCIENNES",
    "original_Code Postal": "59300",
    "original_Département": "59",
    "original_Echelon région": "Hauts-de-France",
    "lat": 50.327349,
    "lon": 3.509999,
    "formatted": "Université de Valenciennes et du Hainaut Cambrésis (UVHC) Campus du Mont-Houy, 59300 Trith-Saint-Léger, France",
    "name": null,
    "housenumber": null,
    "street": "Université de Valenciennes et du Hainaut Cambrésis (UVHC) Campus du Mont-Houy",
    "postcode": "59300",
    "district": "Trith-Saint-Léger",
    "suburb": null,
    "city": "Trith-Saint-Léger",
    "county": "Nord",
    "state": "Hauts-de-France",
    "state_code": "HDF",
    "country": "France",
    "country_code": "fr",
    "confidence": "0",
    "confidence_city_level": null,
    "confidence_street_level": null
  },
  {
    "﻿original_N°": "178",
    "original_NOM": "U Reims Champagne Ardennes",
    "original_Tutelle": "MESR",
    "original_Nombre ETB actif": 39,
    "original_Adresse Siège Social ": "2 AVENUE ROBERT SCHUMAN 51100 REIMS",
    "original_Code Postal": "51100",
    "original_Département": "51",
    "original_Echelon région": "Grand Est",
    "lat": 49.231938,
    "lon": 4.013766,
    "formatted": "2a Avenue Robert Schuman, 51100 Reims, France",
    "name": null,
    "housenumber": "2a",
    "street": "Avenue Robert Schuman",
    "postcode": "51100",
    "district": "Reims",
    "suburb": null,
    "city": "Reims",
    "county": "Marne",
    "state": "Grand Est",
    "state_code": "GES",
    "country": "France",
    "country_code": "fr",
    "confidence": "0.5",
    "confidence_city_level": "1",
    "confidence_street_level": "0.5"
  },
  {
    "﻿original_N°": "179",
    "original_NOM": "U Rennes",
    "original_Tutelle": "MESR",
    "original_Nombre ETB actif": 1,
    "original_Adresse Siège Social ": "CAMPUS DE BEAULIEU 263 AVENUE GENERAL LECLERC 35700 RENNES",
    "original_Code Postal": "35700",
    "original_Département": "35",
    "original_Echelon région": "Bretagne",
    "lat": 48.11553,
    "lon": -1.633965,
    "formatted": "263 avenue du Général Leclerc, 35700 Rennes, France",
    "name": null,
    "housenumber": "263",
    "street": "avenue du Général Leclerc",
    "postcode": "35700",
    "district": "Rennes",
    "suburb": null,
    "city": "Rennes",
    "county": "Ille-et-Vilaine",
    "state": "Bretagne",
    "state_code": "BRE",
    "country": "France",
    "country_code": "fr",
    "confidence": "0.14177664899999998",
    "confidence_city_level": "1",
    "confidence_street_level": "0.14177664899999998"
  },
  {
    "﻿original_N°": "180",
    "original_NOM": "U Rennes 2",
    "original_Tutelle": "MESR",
    "original_Nombre ETB actif": 18,
    "original_Adresse Siège Social ": "PLACE RECTEUR HENRI LE MOAL 35000 RENNES",
    "original_Code Postal": "35000",
    "original_Département": "35",
    "original_Echelon région": "Bretagne",
    "lat": 48.120899,
    "lon": -1.704046,
    "formatted": "1 Place Recteur Henri Le Moal, 35000 Rennes, France",
    "name": null,
    "housenumber": "1",
    "street": "Place Recteur Henri Le Moal",
    "postcode": "35000",
    "district": "Rennes",
    "suburb": null,
    "city": "Rennes",
    "county": "Ille-et-Vilaine",
    "state": "Bretagne",
    "state_code": "BRE",
    "country": "France",
    "country_code": "fr",
    "confidence": "0.7142857142857143",
    "confidence_city_level": "1",
    "confidence_street_level": "0.7142857142857143"
  },
  {
    "﻿original_N°": "181",
    "original_NOM": "U Sorbonne Nouvelle - Paris III",
    "original_Tutelle": "MESR",
    "original_Nombre ETB actif": 26,
    "original_Adresse Siège Social ": "17 RUE DE LA SORBONNE 75005 PARIS",
    "original_Code Postal": "75005",
    "original_Département": "75",
    "original_Echelon région": "Ile-de-France",
    "lat": 48.84863575,
    "lon": 2.3436033602014232,
    "formatted": "Université Paris 1 Panthéon-Sorbonne - Centre Sorbonne, 17 Rue de la Sorbonne, 75005 Paris, France",
    "name": "Université Paris 1 Panthéon-Sorbonne - Centre Sorbonne",
    "housenumber": "17",
    "street": "Rue de la Sorbonne",
    "postcode": "75005",
    "district": "Paris",
    "suburb": "Paris 5e Arrondissement",
    "city": "Paris",
    "county": null,
    "state": "Île-de-France",
    "state_code": "IDF",
    "country": "France",
    "country_code": "fr",
    "confidence": "0.5714285714285714",
    "confidence_city_level": "1",
    "confidence_street_level": "0.5714285714285714"
  },
  {
    "﻿original_N°": "182",
    "original_NOM": "U Sorbonne Paris Nord - Paris XIII - Villetaneuse",
    "original_Tutelle": "MESR",
    "original_Nombre ETB actif": 19,
    "original_Adresse Siège Social ": "UNIVERSITE PARIS XIII.PARIS-NORD, 99 AVENUE JEAN-BAPTISTE CLEMENT 93430 VILLETANEUSE",
    "original_Code Postal": "93430",
    "original_Département": "93",
    "original_Echelon région": "Ile-de-France",
    "lat": 48.959867,
    "lon": 2.344926,
    "formatted": "99 Avenue Jean-baptiste Clément, 93430 Villetaneuse, France",
    "name": null,
    "housenumber": "99",
    "street": "Avenue Jean-baptiste Clément",
    "postcode": "93430",
    "district": "Villetaneuse",
    "suburb": null,
    "city": "Villetaneuse",
    "county": "Seine-Saint-Denis",
    "state": "Île-De-France",
    "state_code": "IDF",
    "country": "France",
    "country_code": "fr",
    "confidence": "0.024815578026752095",
    "confidence_city_level": "1",
    "confidence_street_level": "0.024815578026752095"
  },
  {
    "﻿original_N°": "183",
    "original_NOM": "U Sorbonne Université - Paris",
    "original_Tutelle": "MESR",
    "original_Nombre ETB actif": 40,
    "original_Adresse Siège Social ": "21 RUE DE L'ECOLE DE MEDECINE 75006 PARIS",
    "original_Code Postal": "75006",
    "original_Département": "75",
    "original_Echelon région": "Ile-de-France",
    "lat": 48.8511944,
    "lon": 2.3403301,
    "formatted": "Siège de Sorbonne Université, 21 Rue de l'École de Médecine, 75006 Paris, France",
    "name": "Siège de Sorbonne Université",
    "housenumber": "21",
    "street": "Rue de l'École de Médecine",
    "postcode": "75006",
    "district": "Paris",
    "suburb": "Quartier de l'Odéon",
    "city": "Paris",
    "county": null,
    "state": "Île-de-France",
    "state_code": "IDF",
    "country": "France",
    "country_code": "fr",
    "confidence": "0.25004699999999996",
    "confidence_city_level": "1",
    "confidence_street_level": "0.25004699999999996"
  },
  {
    "﻿original_N°": "184",
    "original_NOM": "U St Etienne - Jean Monnet",
    "original_Tutelle": "MESR",
    "original_Nombre ETB actif": 29,
    "original_Adresse Siège Social ": "MAISON DE L'UNIVERSITE 10 RUE TREFILERIE 42100 SAINT-ETIENNE",
    "original_Code Postal": "42100",
    "original_Département": "42",
    "original_Echelon région": "Auvergne-Rhône-Alpes",
    "lat": 45.424693000000005,
    "lon": 4.392651847030448,
    "formatted": "Maison de l'Université, 10 Rue Tréfilerie, 42100 Saint-Étienne, France",
    "name": "Maison de l'Université",
    "housenumber": "10",
    "street": "Rue Tréfilerie",
    "postcode": "42100",
    "district": "Bizillon",
    "suburb": null,
    "city": "Saint-Étienne",
    "county": "Loire",
    "state": "Auvergne-Rhône-Alpes",
    "state_code": "ARA",
    "country": "France",
    "country_code": "fr",
    "confidence": "0.08038735998299999",
    "confidence_city_level": "1",
    "confidence_street_level": "0.08038735998299999"
  },
  {
    "﻿original_N°": "185",
    "original_NOM": "U Strasbourg",
    "original_Tutelle": "MESR",
    "original_Nombre ETB actif": 67,
    "original_Adresse Siège Social ": "4 RUE BLAISE PASCAL 67000 STRASBOURG",
    "original_Code Postal": "67000",
    "original_Département": "67",
    "original_Echelon région": "Grand Est",
    "lat": 48.580714,
    "lon": 7.766568,
    "formatted": "4 Rue Blaise Pascal, 67000 Strasbourg, France",
    "name": null,
    "housenumber": "4",
    "street": "Rue Blaise Pascal",
    "postcode": "67000",
    "district": "Strasbourg",
    "suburb": null,
    "city": "Strasbourg",
    "county": "Bas-Rhin",
    "state": "Grand Est",
    "state_code": "GES",
    "country": "France",
    "country_code": "fr",
    "confidence": "0.5",
    "confidence_city_level": "1",
    "confidence_street_level": "0.5"
  },
  {
    "﻿original_N°": "186",
    "original_NOM": "U Toulon",
    "original_Tutelle": "MESR",
    "original_Nombre ETB actif": 22,
    "original_Adresse Siège Social ": "AV DE L UNIVERSITE 83130 LA GARDE",
    "original_Code Postal": "83130",
    "original_Département": "83",
    "original_Echelon région": "Provence-Alpes-Côte d'Azur",
    "lat": 43.130785056,
    "lon": 6.023064187,
    "formatted": "83130 France métropolitaine, France",
    "name": null,
    "housenumber": null,
    "street": null,
    "postcode": "83130",
    "district": null,
    "suburb": null,
    "city": null,
    "county": null,
    "state": "France métropolitaine",
    "state_code": null,
    "country": "France",
    "country_code": "fr",
    "confidence": "0",
    "confidence_city_level": "1",
    "confidence_street_level": null
  },
  {
    "﻿original_N°": "187",
    "original_NOM": "U Toulouse Capitole - Toulouse I",
    "original_Tutelle": "MESR",
    "original_Nombre ETB actif": 1,
    "original_Adresse Siège Social ": "2 RUE DU DOYEN GABRIEL MARTY 31000 TOULOUSE",
    "original_Code Postal": "31100",
    "original_Département": "31",
    "original_Echelon région": "Occitanie",
    "lat": 43.574774,
    "lon": 1.399135,
    "formatted": "2 Rue Du Doyen Jules Marsan, 31100 Toulouse, France",
    "name": null,
    "housenumber": "2",
    "street": "Rue Du Doyen Jules Marsan",
    "postcode": "31100",
    "district": "Toulouse",
    "suburb": null,
    "city": "Toulouse",
    "county": "Haute-Garonne",
    "state": "Occitanie",
    "state_code": "OCC",
    "country": "France",
    "country_code": "fr",
    "confidence": "0.16",
    "confidence_city_level": "1",
    "confidence_street_level": "0.16"
  },
  {
    "﻿original_N°": "188",
    "original_NOM": "U Toulouse Jean Jaurès - Toulouse II",
    "original_Tutelle": "MESR",
    "original_Nombre ETB actif": 35,
    "original_Adresse Siège Social ": "5 ALLEE ANTONIO MACHADO 31100 TOULOUSE",
    "original_Code Postal": "31100",
    "original_Département": "31",
    "original_Echelon région": "Occitanie",
    "lat": 43.5777066,
    "lon": 1.4041264,
    "formatted": "Entrée véhicules Université Toulouse Jean-Jaurès, 5 Allée Antonio Machado, 31100 Toulouse, France",
    "name": "Entrée véhicules Université Toulouse Jean-Jaurès",
    "housenumber": "5",
    "street": "Allée Antonio Machado",
    "postcode": "31100",
    "district": "Mirail - Reynerie - Bellefontaine",
    "suburb": "Toulouse Ouest",
    "city": "Toulouse",
    "county": "Haute-Garonne",
    "state": "Occitanie",
    "state_code": "OCC",
    "country": "France",
    "country_code": "fr",
    "confidence": "0.35720999999999997",
    "confidence_city_level": "1",
    "confidence_street_level": "0.35720999999999997"
  },
  {
    "﻿original_N°": "189",
    "original_NOM": "U Toulouse Midi Pyrénées / UNIVERSITE DE TOULOUSE (COMUE)",
    "original_Tutelle": "MESR",
    "original_Nombre ETB actif": 1,
    "original_Adresse Siège Social ": "41 ALLEES JULES GUESDE 31000 TOULOUSE",
    "original_Code Postal": "31000",
    "original_Département": "31",
    "original_Echelon région": "Occitanie",
    "lat": 43.59334975,
    "lon": 1.4495300359978467,
    "formatted": "Muséum d'Histoire Naturelle, 35 Allées Jules Guesde, 31000 Toulouse, France",
    "name": "Muséum d'Histoire Naturelle",
    "housenumber": "35",
    "street": "Allées Jules Guesde",
    "postcode": "31000",
    "district": "Saint-Michel, Le Busca, Empalot, Saint-Agne",
    "suburb": "Toulouse Sud-Est",
    "city": "Toulouse",
    "county": "Haute-Garonne",
    "state": "Occitanie",
    "state_code": "OCC",
    "country": "France",
    "country_code": "fr",
    "confidence": "0.25004699999999996",
    "confidence_city_level": "1",
    "confidence_street_level": "0.25004699999999996"
  },
  {
    "﻿original_N°": "190",
    "original_NOM": "U Toulouse P Sabatier - Toulouse III",
    "original_Tutelle": "MESR",
    "original_Nombre ETB actif": 53,
    "original_Adresse Siège Social ": "118 ROUTE DE NARBONNE 31400 TOULOUSE",
    "original_Code Postal": "31400",
    "original_Département": "31",
    "original_Echelon région": "Occitanie",
    "lat": 43.5615654,
    "lon": 1.4630301,
    "formatted": "118 Route de Narbonne, 31400 Toulouse, France",
    "name": null,
    "housenumber": "118",
    "street": "Route de Narbonne",
    "postcode": "31400",
    "district": "Rangueil, Sauzelong, Pech David, Pouvourville",
    "suburb": "Toulouse Sud-Est",
    "city": "Toulouse",
    "county": "Haute-Garonne",
    "state": "Occitanie",
    "state_code": "OCC",
    "country": "France",
    "country_code": "fr",
    "confidence": "0.5",
    "confidence_city_level": "1",
    "confidence_street_level": "0.5"
  },
  {
    "﻿original_N°": "191",
    "original_NOM": "U Tours",
    "original_Tutelle": "MESR",
    "original_Nombre ETB actif": 27,
    "original_Adresse Siège Social ": "60 RUE DU PLAT D'ETAIN 37000 TOURS",
    "original_Code Postal": "37000",
    "original_Département": "37",
    "original_Echelon région": "Centre Val-de-Loir",
    "lat": 47.384375,
    "lon": 0.676292,
    "formatted": "2 Rue Du Plat d'Étain, 37000 Tours, France",
    "name": null,
    "housenumber": "2",
    "street": "Rue Du Plat d'Étain",
    "postcode": "37000",
    "district": "Tours",
    "suburb": null,
    "city": "Tours",
    "county": "Indre-et-Loire",
    "state": "Centre-Val de Loire",
    "state_code": "CVL",
    "country": "France",
    "country_code": "fr",
    "confidence": "0.25004699999999996",
    "confidence_city_level": "1",
    "confidence_street_level": "0.25004699999999996"
  },
  {
    "﻿original_N°": "192",
    "original_NOM": "U Versailles Saint-Quentin",
    "original_Tutelle": "MESR",
    "original_Nombre ETB actif": 22,
    "original_Adresse Siège Social ": "55 AVENUE DE PARIS 78000 VERSAILLES",
    "original_Code Postal": "78000",
    "original_Département": "78",
    "original_Echelon région": "Ile-de-France",
    "lat": 48.7995562,
    "lon": 2.1415453,
    "formatted": "55 Avenue de Paris, 78000 Versailles, France",
    "name": null,
    "housenumber": "55",
    "street": "Avenue de Paris",
    "postcode": "78000",
    "district": null,
    "suburb": "Montreuil",
    "city": "Versailles",
    "county": "Yvelines",
    "state": "Île-de-France",
    "state_code": "IDF",
    "country": "France",
    "country_code": "fr",
    "confidence": "0.5",
    "confidence_city_level": "1",
    "confidence_street_level": "0.5"
  },
  {
    "﻿original_N°": "193",
    "original_NOM": "Universcience",
    "original_Tutelle": null,
    "original_Nombre ETB actif": 3,
    "original_Adresse Siège Social ": "AVENUE FRANKLIN D. ROOSEVELT 75008 PARIS",
    "original_Code Postal": "75008",
    "original_Département": "75",
    "original_Echelon région": "Ile-de-France",
    "lat": 48.873065,
    "lon": 2.309825,
    "formatted": "75 Avenue Franklin D. Roosevelt, 75008 Paris, France",
    "name": null,
    "housenumber": "75",
    "street": "Avenue Franklin D. Roosevelt",
    "postcode": "75008",
    "district": "Paris",
    "suburb": "Faubourg du Roule",
    "city": "Paris",
    "county": "Paris",
    "state": "Île-De-France",
    "state_code": "IDF",
    "country": "France",
    "country_code": "fr",
    "confidence": "0.6666666666666667",
    "confidence_city_level": "1",
    "confidence_street_level": "0.6666666666666667"
  }
]